[{"name": "\u4f17\u946b\u5927\u53a6", "province": "\u6cb3\u5317\u7701", "uid": "04a3e494290e986958f6be67", "location": {"lng": 114.519169, "lat": 38.044606}, "area": "\u957f\u5b89\u533a", "detail": 1, "city": "\u77f3\u5bb6\u5e84\u5e02", "street_id": "04a3e494290e986958f6be67", "address": "\u6cb3\u5317\u7701\u77f3\u5bb6\u5e84\u5e02\u5efa\u8bbe\u5357\u5927\u885729\u53f7"}, {"name": "\u4f17\u946b\u5927\u53a6-\u505c\u8f66\u573a", "province": "\u6cb3\u5317\u7701", "uid": "38809518c32a692bd3ff23fd", "location": {"lng": 114.519364, "lat": 38.04488}, "area": "\u957f\u5b89\u533a", "detail": 1, "city": "\u77f3\u5bb6\u5e84\u5e02", "street_id": "38809518c32a692bd3ff23fd", "address": "\u6cb3\u5317\u7701\u77f3\u5bb6\u5e84\u5e02\u957f\u5b89\u533a\u5efa\u8bbe\u5357\u5927\u885729\u53f7"}, {"name": "\u534e\u6cf0\u4fdd\u9669(\u6cb3\u5317\u7701\u5206\u516c\u53f8)", "province": "\u6cb3\u5317\u7701", "uid": "49bc668e53fe3353a11de991", "location": {"lng": 114.519383, "lat": 38.044343}, "area": "\u957f\u5b89\u533a", "detail": 1, "city": "\u77f3\u5bb6\u5e84\u5e02", "street_id": "49bc668e53fe3353a11de991", "address": "\u6cb3\u5317\u7701\u77f3\u5bb6\u5e84\u5e02\u5efa\u8bbe\u5357\u5927\u885729\u53f7\u4f17\u946b\u5927\u53a616\u5c42"}, {"name": "\u77f3\u5bb6\u5e84\u52a0\u58f9\u5efa\u7b51\u8bbe\u8ba1\u516c\u53f8", "province": "\u6cb3\u5317\u7701", "uid": "3fd30f8c4bd72aec58f6be65", "location": {"lng": 114.518779, "lat": 38.045285}, "area": "\u957f\u5b89\u533a", "detail": 1, "city": "\u77f3\u5bb6\u5e84\u5e02", "street_id": "3fd30f8c4bd72aec58f6be65", "address": "\u5efa\u8bbe\u5357\u5927\u885729\u53f7\u4f17\u946b\u5927\u53a622\u5c42"}, {"name": "\u4f17\u946b\u5927\u53a6-\u5730\u4e0b\u505c\u8f66\u573a", "province": "\u6cb3\u5317\u7701", "uid": "c63b13f1984c551808ccdd35", "location": {"lng": 114.519376, "lat": 38.044888}, "area": "\u957f\u5b89\u533a", "detail": 1, "city": "\u77f3\u5bb6\u5e84\u5e02", "street_id": "c63b13f1984c551808ccdd35", "address": "\u5efa\u8bbe\u5357\u5927\u885729\u53f7"}, {"name": "\u90af\u90f8\u94f6\u884c-24\u5c0f\u65f6\u81ea\u52a9\u94f6\u884c", "province": "\u6cb3\u5317\u7701", "uid": "34f1010c16e3c724b9df8f0c", "location": {"lng": 114.518699, "lat": 38.044486}, "area": "\u957f\u5b89\u533a", "detail": 1, "city": "\u77f3\u5bb6\u5e84\u5e02", "street_id": "34f1010c16e3c724b9df8f0c", "address": "\u77f3\u5bb6\u5e84\u5e02\u957f\u5b89\u533a\u5efa\u8bbe\u5357\u5927\u885729\u53f7\u9644\u8fd1"}, {"name": "\u77f3\u5bb6\u5e84\u5e02\u5e02\u5bb9\u7ba1\u7406\u8003\u8bc4\u529e\u516c\u5ba4", "province": "\u6cb3\u5317\u7701", "uid": "5fab7d084ccd323ec9c3db93", "location": {"lng": 114.519542, "lat": 38.0446}, "area": "\u957f\u5b89\u533a", "detail": 1, "city": "\u77f3\u5bb6\u5e84\u5e02", "street_id": "5fab7d084ccd323ec9c3db93", "address": "\u6cb3\u5317\u7701\u77f3\u5bb6\u5e84\u5e02\u957f\u5b89\u533a\u5efa\u8bbe\u5357\u5927\u885729\u53f7\u4f17\u946b\u5927\u53a611/12\u5c42"}, {"name": "\u5eb7\u529b\u7535\u68af\u6cb3\u5317\u5206\u516c\u53f8", "province": "\u6cb3\u5317\u7701", "uid": "b7f4dc34bf42650af7c59c38", "location": {"lng": 114.518923, "lat": 38.044606}, "area": "\u957f\u5b89\u533a", "detail": 1, "city": "\u77f3\u5bb6\u5e84\u5e02", "street_id": "b7f4dc34bf42650af7c59c38", "address": "\u6cb3\u5317\u7701\u77f3\u5bb6\u5e84\u5e02\u957f\u5b89\u533a\u5efa\u8bbe\u5357\u5927\u885729\u53f7\u4f17\u946b\u5927\u53a6818\u5ba4"}, {"name": "\u77f3\u5bb6\u5e84\u81f4\u89c2\u5de5\u7a0b\u6280\u672f\u54a8\u8be2\u6709\u9650\u516c\u53f8", "province": "\u6cb3\u5317\u7701", "uid": "5020ae384c37756ea1a93483", "location": {"lng": 114.519277, "lat": 38.044639}, "area": "\u957f\u5b89\u533a", "detail": 1, "city": "\u77f3\u5bb6\u5e84\u5e02", "street_id": "5020ae384c37756ea1a93483", "address": "\u5efa\u8bbe\u5357\u5927\u885729\u53f7\u4f17\u946b\u5927\u53a6"}, {"name": "\u5c1a\u54c1\u9762\u5427", "province": "\u6cb3\u5317\u7701", "uid": "7e7a22f5e8a3c8dcede4a523", "location": {"lng": 114.519302, "lat": 38.04477}, "area": "\u957f\u5b89\u533a", "detail": 1, "city": "\u77f3\u5bb6\u5e84\u5e02", "street_id": "7e7a22f5e8a3c8dcede4a523", "address": "\u77f3\u5bb6\u5e84\u5e02\u957f\u5b89\u533a\u5efa\u8bbe\u5357\u5927\u8857\u4f17\u946b\u5927\u53a61\u5c42", "telephone": "(0311)69004572"}][][{"name": "\u6cb3\u5317\u4e2d\u533b\u5b66\u9662\u5bb6\u5c5e\u9662", "province": "\u6cb3\u5317\u7701", "uid": "6113ef77b27962148e77276e", "location": {"lng": 114.462674, "lat": 38.015537}, "area": "\u6865\u897f\u533a", "detail": 1, "city": "\u77f3\u5bb6\u5e84\u5e02", "street_id": "6113ef77b27962148e77276e", "address": "\u65b0\u77f3\u5357\u8def229\u53f7"}, {"name": "\u6cb3\u5317\u533b\u79d1\u5927\u5b66\u4e2d\u533b\u5b66\u9662\u5bbf\u820d-11\u53f7\u697c", "province": "\u6cb3\u5317\u7701", "uid": "f18c561a4bdab76ec91b9598", "location": {"lng": 114.462318, "lat": 38.016139}, "area": "\u6865\u897f\u533a", "detail": 1, "city": "\u77f3\u5bb6\u5e84\u5e02", "street_id": "f18c561a4bdab76ec91b9598", "address": "\u77f3\u5bb6\u5e84\u5e02\u6865\u897f\u533a\u65b0\u77f3\u5357\u8def229\u53f7"}, {"name": "\u7efc\u5408\u6c34\u4ea7\u5e97", "province": "\u6cb3\u5317\u7701", "uid": "73be331f6ae91341b34c49cd", "location": {"lng": 114.463422, "lat": 38.015263}, "area": "\u6865\u897f\u533a", "detail": 1, "city": "\u77f3\u5bb6\u5e84\u5e02", "street_id": "73be331f6ae91341b34c49cd", "address": "\u65b0\u77f3\u5357\u8def229\u53f7\u9644\u8fd1"}, {"name": "\u8c46\u8150\u574a", "province": "\u6cb3\u5317\u7701", "uid": "ed4c7f2dda24312421026287", "location": {"lng": 114.463316, "lat": 38.015033}, "area": "\u6865\u897f\u533a", "detail": 1, "city": "\u77f3\u5bb6\u5e84\u5e02", "street_id": "ed4c7f2dda24312421026287", "address": "\u6cb3\u5317\u7701\u77f3\u5bb6\u5e84\u5e02\u6865\u897f\u533a\u65b0\u77f3\u5357\u8def229\u53f7"}, {"name": "\u4f1a\u53cb\u5ddd\u5473\u9910\u5385", "province": "\u6cb3\u5317\u7701", "uid": "8f4c83db231cdeb3f942b29a", "location": {"lng": 114.463156, "lat": 38.015212}, "area": "\u6865\u897f\u533a", "detail": 1, "city": "\u77f3\u5bb6\u5e84\u5e02", "street_id": "8f4c83db231cdeb3f942b29a", "address": "\u77f3\u5bb6\u5e84\u6865\u897f\u533a\u65b0\u77f3\u5357\u8def229\u53f7"}, {"name": "\u6cb3\u5317\u4e2d\u533b\u5b66\u9662\u6a58\u6cc9\u6821\u533a-\u79bb\u9000\u4f11\u4eba\u5458\u6d3b\u52a8\u4e2d\u5fc3", "province": "\u6cb3\u5317\u7701", "uid": "adc73762627b284c6e20b9f0", "location": {"lng": 114.463229, "lat": 38.015067}, "area": "\u6865\u897f\u533a", "detail": 1, "city": "\u77f3\u5bb6\u5e84\u5e02", "street_id": "adc73762627b284c6e20b9f0", "address": "\u6cb3\u5317\u7701\u77f3\u5bb6\u5e84\u5e02\u6865\u897f\u533a\u65b0\u77f3\u5357\u8def229\u53f7"}, {"name": "\u65b0\u4e2d\u9c9c\u83dc\u5e97", "province": "\u6cb3\u5317\u7701", "uid": "2e76bee857a4c8b09122e052", "location": {"lng": 114.463279, "lat": 38.015263}, "area": "\u6865\u897f\u533a", "detail": 1, "city": "\u77f3\u5bb6\u5e84\u5e02", "street_id": "2e76bee857a4c8b09122e052", "address": "\u6cb3\u5317\u7701\u77f3\u5bb6\u5e84\u5e02\u6865\u897f\u533a\u65b0\u77f3\u5357\u8def229\u53f7"}, {"name": "\u91cd\u5e86\u9171\u83dc", "province": "\u6cb3\u5317\u7701", "uid": "687008c3d3325764213bf24b", "location": {"lng": 114.463317, "lat": 38.014828}, "area": "\u6865\u897f\u533a", "detail": 1, "city": "\u77f3\u5bb6\u5e84\u5e02", "street_id": "687008c3d3325764213bf24b", "address": "\u6cb3\u5317\u7701\u77f3\u5bb6\u5e84\u5e02\u6865\u897f\u533a\u65b0\u77f3\u5357\u8def229\u53f7"}][{"name": "\u534e\u5317\u95e8\u4e1a\u535a\u89c8\u4e2d\u5fc3-\u4e1c\u95e8", "province": "\u6cb3\u5317\u7701", "uid": "3c9786884e7748d817948e19", "location": {"lng": 114.565905, "lat": 38.16033}, "area": "\u6b63\u5b9a\u53bf", "detail": 1, "city": "\u77f3\u5bb6\u5e84\u5e02", "street_id": "3c9786884e7748d817948e19", "address": "\u6cb3\u5317\u7701\u77f3\u5bb6\u5e84\u5e02\u6b63\u5b9a\u53bf\u6210\u5fb7\u5317\u88571\u53f7"}, {"name": "\u534e\u5317\u95e8\u4e1a\u535a\u89c8\u4e2d\u5fc3-\u5730\u4e0b\u505c\u8f66\u573a", "province": "\u6cb3\u5317\u7701", "uid": "8f725390a2febbe00089728a", "location": {"lng": 114.566115, "lat": 38.16092}, "area": "\u6b63\u5b9a\u53bf", "detail": 1, "city": "\u77f3\u5bb6\u5e84\u5e02", "street_id": "8f725390a2febbe00089728a", "address": "\u6cb3\u5317\u7701\u77f3\u5bb6\u5e84\u5e02\u6b63\u5b9a\u53bf\u6210\u5fb7\u5317\u88571\u53f7"}, {"name": "\u534e\u5317\u95e8\u4e1a\u535a\u89c8\u4e2d\u5fc3-B\u5ea7\u516c\u5bd3\u4e00", "province": "\u6cb3\u5317\u7701", "uid": "3684db29c8e22dea0bccddc4", "location": {"lng": 114.565568, "lat": 38.159573}, "area": "\u6b63\u5b9a\u53bf", "detail": 1, "city": "\u77f3\u5bb6\u5e84\u5e02", "street_id": "3684db29c8e22dea0bccddc4", "address": "\u6210\u5fb7\u5357\u88571\u53f7\u9644\u8fd1"}, {"name": "\u5927\u5fb7\u6728\u95e8", "province": "\u6cb3\u5317\u7701", "uid": "1ccf25876d8b908b0ab93ad3", "location": {"lng": 114.565388, "lat": 38.160198}, "area": "\u6b63\u5b9a\u53bf", "detail": 1, "city": "\u77f3\u5bb6\u5e84\u5e02", "street_id": "1ccf25876d8b908b0ab93ad3", "address": "\u627f\u5fb7\u88571\u53f7\u534e\u5317\u95e8\u4e1a\u535a\u89c8\u4e2d\u5fc31\u5c42"}, {"name": "\u534e\u5317\u95e8\u4e1a\u535a\u89c8\u4e2d\u5fc3B\u5ea7\u516c\u5bd3-\u4e8c", "province": "\u6cb3\u5317\u7701", "uid": "f14ef404d219fc8e7bb55c23", "location": {"lng": 114.565266, "lat": 38.159585}, "area": "\u6b63\u5b9a\u53bf", "detail": 1, "city": "\u77f3\u5bb6\u5e84\u5e02", "street_id": "f14ef404d219fc8e7bb55c23", "address": "\u6210\u5fb7\u5357\u88571\u53f7\u9644\u8fd1"}, {"name": "\u534e\u5317\u95e8\u4e1a\u535a\u89c8\u4e2d\u5fc3B\u5ea7\u516c\u5bd3-\u5357\u95e8", "province": "\u6cb3\u5317\u7701", "uid": "c76d025a75268d83aa059d1d", "location": {"lng": 114.565372, "lat": 38.159636}, "area": "\u6b63\u5b9a\u53bf", "detail": 1, "city": "\u77f3\u5bb6\u5e84\u5e02", "street_id": "c76d025a75268d83aa059d1d", "address": "\u6210\u5fb7\u5357\u88571\u53f7\u9644\u8fd1"}][{"name": "\u7eff\u8272\u5bb6\u56ed", "province": "\u6cb3\u5317\u7701", "uid": "4b93b43a80df184ffea77893", "location": {"lng": 114.549128, "lat": 38.044994}, "area": "\u957f\u5b89\u533a", "detail": 1, "city": "\u77f3\u5bb6\u5e84\u5e02", "street_id": "4b93b43a80df184ffea77893", "address": "\u5efa\u660e\u5357\u8def1\u53f7\uff08\u5efa\u534e\u5927\u8857\u4ea4\u5efa\u660e\u5357\u8def\u897f\u884c300\u7c73\u8def\u5317\uff09"}, {"name": "\u5bb6\u8d2d\u7efc\u5408\u8d85\u5e02", "province": "\u6cb3\u5317\u7701", "uid": "aeb958415368d057d23ce355", "location": {"lng": 114.549112, "lat": 38.044209}, "area": "\u957f\u5b89\u533a", "detail": 1, "city": "\u77f3\u5bb6\u5e84\u5e02", "address": "\u5efa\u660e\u5357\u8def1\u53f7\u7eff\u8272\u5bb6\u56ed\u5546\u4e1a\u697c102\u53f7", "telephone": "(0311)85116588"}, {"name": "\u7eff\u8272\u5bb6\u56ed-\u53571\u95e8", "province": "\u6cb3\u5317\u7701", "uid": "b0ed73b793a853b986420edb", "location": {"lng": 114.548718, "lat": 38.044163}, "area": "\u957f\u5b89\u533a", "detail": 1, "city": "\u77f3\u5bb6\u5e84\u5e02", "address": "\u5efa\u660e\u5357\u8def1\u53f7\u9644\u8fd1"}, {"name": "\u9a6c\u8001\u4e8c\u5170\u5dde\u62c9\u9762\u5927\u76d8\u9e21\u4e8c\u5341\u4e09\u5206\u5e97", "province": "\u6cb3\u5317\u7701", "uid": "2950d057cc96b721c5effbaf", "location": {"lng": 114.548887, "lat": 38.04417}, "area": "\u957f\u5b89\u533a", "detail": 1, "city": "\u77f3\u5bb6\u5e84\u5e02", "address": "\u5efa\u660e\u5357\u8def1\u53f7"}, {"name": "\u54c1\u9a8f\u5feb\u9012\u65b9\u5317\u914d\u9001\u7ad9\u6cb3\u5317\u54c1\u9a8f\u7269\u6d41\u6709\u9650\u516c\u53f8\u5efa\u660e\u5357\u8def\u5206\u516c\u53f8", "province": "\u6cb3\u5317\u7701", "uid": "49006d9d8776eeec2fb96dfa", "location": {"lng": 114.548887, "lat": 38.04417}, "area": "\u957f\u5b89\u533a", "detail": 1, "city": "\u77f3\u5bb6\u5e84\u5e02", "address": "\u5efa\u534e\u5357\u8857\u9053\u5efa\u660e\u5357\u8def1\u53f7"}, {"name": "\u77f3\u5bb6\u5e84\u5e02\u5efa\u7b51\u88c5\u9970\u6750\u6599\u5de5\u7a0b\u6280\u672f\u7814\u7a76\u4e2d\u5fc3", "province": "\u6cb3\u5317\u7701", "uid": "f56657eb7b4a804b85420ed5", "location": {"lng": 114.549564, "lat": 38.043973}, "area": "\u957f\u5b89\u533a", "detail": 1, "city": "\u77f3\u5bb6\u5e84\u5e02", "address": "\u5efa\u660e\u5357\u8def16\u53f7\u946b\u6c34\u56ed\u5546\u52a1\u697ca\u5ea7"}, {"name": "\u7b77\u5ba2\u9178\u8fa3\u7c89\u9505\u9b41", "province": "\u6cb3\u5317\u7701", "uid": "b8f24ab6ed382a00882fb513", "location": {"lng": 114.549129, "lat": 38.044205}, "area": "\u957f\u5b89\u533a", "detail": 1, "city": "\u77f3\u5bb6\u5e84\u5e02", "address": "\u77f3\u5bb6\u5e84\u5e02\u957f\u5b89\u533a\u5efa\u660e\u5357\u8def1\u53f7", "telephone": "15075133909"}, {"name": "\u6811\u8bda\u7efc\u5408\u5546\u5e97\u4fbf\u5229\u5e97", "province": "\u6cb3\u5317\u7701", "uid": "1c70dd663e8d958c6e20b9a0", "location": {"lng": 114.548923, "lat": 38.044196}, "area": "\u957f\u5b89\u533a", "detail": 1, "city": "\u77f3\u5bb6\u5e84\u5e02", "address": "\u5efa\u660e\u5357\u8def1\u53f7\u9644\u8fd1"}, {"name": "\u638c\u8baf", "province": "\u6cb3\u5317\u7701", "uid": "d0db1b541595f232dc1e528c", "location": {"lng": 114.549237, "lat": 38.043931}, "area": "\u957f\u5b89\u533a", "detail": 1, "city": "\u77f3\u5bb6\u5e84\u5e02", "address": "\u6cb3\u4e1c\u8857\u9053\u534e\u6e05\u5357\u8857\u5efa\u660e\u5357\u8def1\u53f7\u946b\u6c34\u56ed\u4e1c\u884c100\u7c73\u5546\u4e1a\u529e\u516c\u697cB\u5ea7"}, {"name": "\u6cb3\u5317\u5e7f\u64ad\u7535\u89c6\u62a5\u5bbf\u820d-1\u53f7\u697c", "province": "\u6cb3\u5317\u7701", "uid": "f2d4d8a6c925b237f6c59c97", "location": {"lng": 114.550635, "lat": 38.043936}, "area": "\u957f\u5b89\u533a", "detail": 1, "city": "\u77f3\u5bb6\u5e84\u5e02", "street_id": "da2d4000e025fda7f02d8382", "address": "\u5efa\u660e\u5357\u8def6\u53f7"}][{"uid": "04a3e494290e986958f6be67", "street_id": "04a3e494290e986958f6be67", "province": "\u6cb3\u5317\u7701", "area": "\u957f\u5b89\u533a", "city": "\u77f3\u5bb6\u5e84\u5e02", "location": {"lat": 38.044606, "lng": 114.519169}, "name": "\u4f17\u946b\u5927\u53a6", "address": "\u6cb3\u5317\u7701\u77f3\u5bb6\u5e84\u5e02\u5efa\u8bbe\u5357\u5927\u885729\u53f7", "detail": 1}, {"uid": "38809518c32a692bd3ff23fd", "street_id": "38809518c32a692bd3ff23fd", "province": "\u6cb3\u5317\u7701", "area": "\u957f\u5b89\u533a", "city": "\u77f3\u5bb6\u5e84\u5e02", "location": {"lat": 38.04488, "lng": 114.519364}, "name": "\u4f17\u946b\u5927\u53a6-\u505c\u8f66\u573a", "address": "\u6cb3\u5317\u7701\u77f3\u5bb6\u5e84\u5e02\u957f\u5b89\u533a\u5efa\u8bbe\u5357\u5927\u885729\u53f7", "detail": 1}, {"uid": "49bc668e53fe3353a11de991", "street_id": "49bc668e53fe3353a11de991", "province": "\u6cb3\u5317\u7701", "area": "\u957f\u5b89\u533a", "city": "\u77f3\u5bb6\u5e84\u5e02", "location": {"lat": 38.044343, "lng": 114.519383}, "name": "\u534e\u6cf0\u4fdd\u9669(\u6cb3\u5317\u7701\u5206\u516c\u53f8)", "address": "\u6cb3\u5317\u7701\u77f3\u5bb6\u5e84\u5e02\u5efa\u8bbe\u5357\u5927\u885729\u53f7\u4f17\u946b\u5927\u53a616\u5c42", "detail": 1}, {"uid": "3fd30f8c4bd72aec58f6be65", "street_id": "3fd30f8c4bd72aec58f6be65", "province": "\u6cb3\u5317\u7701", "area": "\u957f\u5b89\u533a", "city": "\u77f3\u5bb6\u5e84\u5e02", "location": {"lat": 38.045285, "lng": 114.518779}, "name": "\u77f3\u5bb6\u5e84\u52a0\u58f9\u5efa\u7b51\u8bbe\u8ba1\u516c\u53f8", "address": "\u5efa\u8bbe\u5357\u5927\u885729\u53f7\u4f17\u946b\u5927\u53a622\u5c42", "detail": 1}, {"uid": "c63b13f1984c551808ccdd35", "street_id": "c63b13f1984c551808ccdd35", "province": "\u6cb3\u5317\u7701", "area": "\u957f\u5b89\u533a", "city": "\u77f3\u5bb6\u5e84\u5e02", "location": {"lat": 38.044888, "lng": 114.519376}, "name": "\u4f17\u946b\u5927\u53a6-\u5730\u4e0b\u505c\u8f66\u573a", "address": "\u5efa\u8bbe\u5357\u5927\u885729\u53f7", "detail": 1}, {"uid": "34f1010c16e3c724b9df8f0c", "street_id": "34f1010c16e3c724b9df8f0c", "province": "\u6cb3\u5317\u7701", "area": "\u957f\u5b89\u533a", "city": "\u77f3\u5bb6\u5e84\u5e02", "location": {"lat": 38.044486, "lng": 114.518699}, "name": "\u90af\u90f8\u94f6\u884c-24\u5c0f\u65f6\u81ea\u52a9\u94f6\u884c", "address": "\u77f3\u5bb6\u5e84\u5e02\u957f\u5b89\u533a\u5efa\u8bbe\u5357\u5927\u885729\u53f7\u9644\u8fd1", "detail": 1}, {"uid": "5fab7d084ccd323ec9c3db93", "street_id": "5fab7d084ccd323ec9c3db93", "province": "\u6cb3\u5317\u7701", "area": "\u957f\u5b89\u533a", "city": "\u77f3\u5bb6\u5e84\u5e02", "location": {"lat": 38.0446, "lng": 114.519542}, "name": "\u77f3\u5bb6\u5e84\u5e02\u5e02\u5bb9\u7ba1\u7406\u8003\u8bc4\u529e\u516c\u5ba4", "address": "\u6cb3\u5317\u7701\u77f3\u5bb6\u5e84\u5e02\u957f\u5b89\u533a\u5efa\u8bbe\u5357\u5927\u885729\u53f7\u4f17\u946b\u5927\u53a611/12\u5c42", "detail": 1}, {"uid": "b7f4dc34bf42650af7c59c38", "street_id": "b7f4dc34bf42650af7c59c38", "province": "\u6cb3\u5317\u7701", "area": "\u957f\u5b89\u533a", "city": "\u77f3\u5bb6\u5e84\u5e02", "location": {"lat": 38.044606, "lng": 114.518923}, "name": "\u5eb7\u529b\u7535\u68af\u6cb3\u5317\u5206\u516c\u53f8", "address": "\u6cb3\u5317\u7701\u77f3\u5bb6\u5e84\u5e02\u957f\u5b89\u533a\u5efa\u8bbe\u5357\u5927\u885729\u53f7\u4f17\u946b\u5927\u53a6818\u5ba4", "detail": 1}, {"uid": "5020ae384c37756ea1a93483", "street_id": "5020ae384c37756ea1a93483", "province": "\u6cb3\u5317\u7701", "area": "\u957f\u5b89\u533a", "city": "\u77f3\u5bb6\u5e84\u5e02", "location": {"lat": 38.044639, "lng": 114.519277}, "name": "\u77f3\u5bb6\u5e84\u81f4\u89c2\u5de5\u7a0b\u6280\u672f\u54a8\u8be2\u6709\u9650\u516c\u53f8", "address": "\u5efa\u8bbe\u5357\u5927\u885729\u53f7\u4f17\u946b\u5927\u53a6", "detail": 1}, {"uid": "7e7a22f5e8a3c8dcede4a523", "street_id": "7e7a22f5e8a3c8dcede4a523", "province": "\u6cb3\u5317\u7701", "area": "\u957f\u5b89\u533a", "city": "\u77f3\u5bb6\u5e84\u5e02", "telephone": "(0311)69004572", "location": {"lat": 38.04477, "lng": 114.519302}, "name": "\u5c1a\u54c1\u9762\u5427", "address": "\u77f3\u5bb6\u5e84\u5e02\u957f\u5b89\u533a\u5efa\u8bbe\u5357\u5927\u8857\u4f17\u946b\u5927\u53a61\u5c42", "detail": 1}][{"uid": "04a3e494290e986958f6be67", "street_id": "04a3e494290e986958f6be67", "province": "\u6cb3\u5317\u7701", "area": "\u957f\u5b89\u533a", "city": "\u77f3\u5bb6\u5e84\u5e02", "location": {"lat": 38.044606, "lng": 114.519169}, "name": "\u4f17\u946b\u5927\u53a6", "address": "\u6cb3\u5317\u7701\u77f3\u5bb6\u5e84\u5e02\u5efa\u8bbe\u5357\u5927\u885729\u53f7", "detail": 1}, {"uid": "38809518c32a692bd3ff23fd", "street_id": "38809518c32a692bd3ff23fd", "province": "\u6cb3\u5317\u7701", "area": "\u957f\u5b89\u533a", "city": "\u77f3\u5bb6\u5e84\u5e02", "location": {"lat": 38.04488, "lng": 114.519364}, "name": "\u4f17\u946b\u5927\u53a6-\u505c\u8f66\u573a", "address": "\u6cb3\u5317\u7701\u77f3\u5bb6\u5e84\u5e02\u957f\u5b89\u533a\u5efa\u8bbe\u5357\u5927\u885729\u53f7", "detail": 1}, {"uid": "49bc668e53fe3353a11de991", "street_id": "49bc668e53fe3353a11de991", "province": "\u6cb3\u5317\u7701", "area": "\u957f\u5b89\u533a", "city": "\u77f3\u5bb6\u5e84\u5e02", "location": {"lat": 38.044343, "lng": 114.519383}, "name": "\u534e\u6cf0\u4fdd\u9669(\u6cb3\u5317\u7701\u5206\u516c\u53f8)", "address": "\u6cb3\u5317\u7701\u77f3\u5bb6\u5e84\u5e02\u5efa\u8bbe\u5357\u5927\u885729\u53f7\u4f17\u946b\u5927\u53a616\u5c42", "detail": 1}, {"uid": "3fd30f8c4bd72aec58f6be65", "street_id": "3fd30f8c4bd72aec58f6be65", "province": "\u6cb3\u5317\u7701", "area": "\u957f\u5b89\u533a", "city": "\u77f3\u5bb6\u5e84\u5e02", "location": {"lat": 38.045285, "lng": 114.518779}, "name": "\u77f3\u5bb6\u5e84\u52a0\u58f9\u5efa\u7b51\u8bbe\u8ba1\u516c\u53f8", "address": "\u5efa\u8bbe\u5357\u5927\u885729\u53f7\u4f17\u946b\u5927\u53a622\u5c42", "detail": 1}, {"uid": "c63b13f1984c551808ccdd35", "street_id": "c63b13f1984c551808ccdd35", "province": "\u6cb3\u5317\u7701", "area": "\u957f\u5b89\u533a", "city": "\u77f3\u5bb6\u5e84\u5e02", "location": {"lat": 38.044888, "lng": 114.519376}, "name": "\u4f17\u946b\u5927\u53a6-\u5730\u4e0b\u505c\u8f66\u573a", "address": "\u5efa\u8bbe\u5357\u5927\u885729\u53f7", "detail": 1}, {"uid": "34f1010c16e3c724b9df8f0c", "street_id": "34f1010c16e3c724b9df8f0c", "province": "\u6cb3\u5317\u7701", "area": "\u957f\u5b89\u533a", "city": "\u77f3\u5bb6\u5e84\u5e02", "location": {"lat": 38.044486, "lng": 114.518699}, "name": "\u90af\u90f8\u94f6\u884c-24\u5c0f\u65f6\u81ea\u52a9\u94f6\u884c", "address": "\u77f3\u5bb6\u5e84\u5e02\u957f\u5b89\u533a\u5efa\u8bbe\u5357\u5927\u885729\u53f7\u9644\u8fd1", "detail": 1}, {"uid": "5fab7d084ccd323ec9c3db93", "street_id": "5fab7d084ccd323ec9c3db93", "province": "\u6cb3\u5317\u7701", "area": "\u957f\u5b89\u533a", "city": "\u77f3\u5bb6\u5e84\u5e02", "location": {"lat": 38.0446, "lng": 114.519542}, "name": "\u77f3\u5bb6\u5e84\u5e02\u5e02\u5bb9\u7ba1\u7406\u8003\u8bc4\u529e\u516c\u5ba4", "address": "\u6cb3\u5317\u7701\u77f3\u5bb6\u5e84\u5e02\u957f\u5b89\u533a\u5efa\u8bbe\u5357\u5927\u885729\u53f7\u4f17\u946b\u5927\u53a611/12\u5c42", "detail": 1}, {"uid": "b7f4dc34bf42650af7c59c38", "street_id": "b7f4dc34bf42650af7c59c38", "province": "\u6cb3\u5317\u7701", "area": "\u957f\u5b89\u533a", "city": "\u77f3\u5bb6\u5e84\u5e02", "location": {"lat": 38.044606, "lng": 114.518923}, "name": "\u5eb7\u529b\u7535\u68af\u6cb3\u5317\u5206\u516c\u53f8", "address": "\u6cb3\u5317\u7701\u77f3\u5bb6\u5e84\u5e02\u957f\u5b89\u533a\u5efa\u8bbe\u5357\u5927\u885729\u53f7\u4f17\u946b\u5927\u53a6818\u5ba4", "detail": 1}, {"uid": "5020ae384c37756ea1a93483", "street_id": "5020ae384c37756ea1a93483", "province": "\u6cb3\u5317\u7701", "area": "\u957f\u5b89\u533a", "city": "\u77f3\u5bb6\u5e84\u5e02", "location": {"lat": 38.044639, "lng": 114.519277}, "name": "\u77f3\u5bb6\u5e84\u81f4\u89c2\u5de5\u7a0b\u6280\u672f\u54a8\u8be2\u6709\u9650\u516c\u53f8", "address": "\u5efa\u8bbe\u5357\u5927\u885729\u53f7\u4f17\u946b\u5927\u53a6", "detail": 1}, {"uid": "7e7a22f5e8a3c8dcede4a523", "street_id": "7e7a22f5e8a3c8dcede4a523", "province": "\u6cb3\u5317\u7701", "area": "\u957f\u5b89\u533a", "city": "\u77f3\u5bb6\u5e84\u5e02", "telephone": "(0311)69004572", "location": {"lat": 38.04477, "lng": 114.519302}, "name": "\u5c1a\u54c1\u9762\u5427", "address": "\u77f3\u5bb6\u5e84\u5e02\u957f\u5b89\u533a\u5efa\u8bbe\u5357\u5927\u8857\u4f17\u946b\u5927\u53a61\u5c42", "detail": 1}][{"uid": "04a3e494290e986958f6be67", "street_id": "04a3e494290e986958f6be67", "province": "\u6cb3\u5317\u7701", "area": "\u957f\u5b89\u533a", "city": "\u77f3\u5bb6\u5e84\u5e02", "location": {"lat": 38.044606, "lng": 114.519169}, "name": "\u4f17\u946b\u5927\u53a6", "address": "\u6cb3\u5317\u7701\u77f3\u5bb6\u5e84\u5e02\u5efa\u8bbe\u5357\u5927\u885729\u53f7", "detail": 1}, {"uid": "38809518c32a692bd3ff23fd", "street_id": "38809518c32a692bd3ff23fd", "province": "\u6cb3\u5317\u7701", "area": "\u957f\u5b89\u533a", "city": "\u77f3\u5bb6\u5e84\u5e02", "location": {"lat": 38.04488, "lng": 114.519364}, "name": "\u4f17\u946b\u5927\u53a6-\u505c\u8f66\u573a", "address": "\u6cb3\u5317\u7701\u77f3\u5bb6\u5e84\u5e02\u957f\u5b89\u533a\u5efa\u8bbe\u5357\u5927\u885729\u53f7", "detail": 1}, {"uid": "49bc668e53fe3353a11de991", "street_id": "49bc668e53fe3353a11de991", "province": "\u6cb3\u5317\u7701", "area": "\u957f\u5b89\u533a", "city": "\u77f3\u5bb6\u5e84\u5e02", "location": {"lat": 38.044343, "lng": 114.519383}, "name": "\u534e\u6cf0\u4fdd\u9669(\u6cb3\u5317\u7701\u5206\u516c\u53f8)", "address": "\u6cb3\u5317\u7701\u77f3\u5bb6\u5e84\u5e02\u5efa\u8bbe\u5357\u5927\u885729\u53f7\u4f17\u946b\u5927\u53a616\u5c42", "detail": 1}, {"uid": "3fd30f8c4bd72aec58f6be65", "street_id": "3fd30f8c4bd72aec58f6be65", "province": "\u6cb3\u5317\u7701", "area": "\u957f\u5b89\u533a", "city": "\u77f3\u5bb6\u5e84\u5e02", "location": {"lat": 38.045285, "lng": 114.518779}, "name": "\u77f3\u5bb6\u5e84\u52a0\u58f9\u5efa\u7b51\u8bbe\u8ba1\u516c\u53f8", "address": "\u5efa\u8bbe\u5357\u5927\u885729\u53f7\u4f17\u946b\u5927\u53a622\u5c42", "detail": 1}, {"uid": "c63b13f1984c551808ccdd35", "street_id": "c63b13f1984c551808ccdd35", "province": "\u6cb3\u5317\u7701", "area": "\u957f\u5b89\u533a", "city": "\u77f3\u5bb6\u5e84\u5e02", "location": {"lat": 38.044888, "lng": 114.519376}, "name": "\u4f17\u946b\u5927\u53a6-\u5730\u4e0b\u505c\u8f66\u573a", "address": "\u5efa\u8bbe\u5357\u5927\u885729\u53f7", "detail": 1}, {"uid": "34f1010c16e3c724b9df8f0c", "street_id": "34f1010c16e3c724b9df8f0c", "province": "\u6cb3\u5317\u7701", "area": "\u957f\u5b89\u533a", "city": "\u77f3\u5bb6\u5e84\u5e02", "location": {"lat": 38.044486, "lng": 114.518699}, "name": "\u90af\u90f8\u94f6\u884c-24\u5c0f\u65f6\u81ea\u52a9\u94f6\u884c", "address": "\u77f3\u5bb6\u5e84\u5e02\u957f\u5b89\u533a\u5efa\u8bbe\u5357\u5927\u885729\u53f7\u9644\u8fd1", "detail": 1}, {"uid": "5fab7d084ccd323ec9c3db93", "street_id": "5fab7d084ccd323ec9c3db93", "province": "\u6cb3\u5317\u7701", "area": "\u957f\u5b89\u533a", "city": "\u77f3\u5bb6\u5e84\u5e02", "location": {"lat": 38.0446, "lng": 114.519542}, "name": "\u77f3\u5bb6\u5e84\u5e02\u5e02\u5bb9\u7ba1\u7406\u8003\u8bc4\u529e\u516c\u5ba4", "address": "\u6cb3\u5317\u7701\u77f3\u5bb6\u5e84\u5e02\u957f\u5b89\u533a\u5efa\u8bbe\u5357\u5927\u885729\u53f7\u4f17\u946b\u5927\u53a611/12\u5c42", "detail": 1}, {"uid": "b7f4dc34bf42650af7c59c38", "street_id": "b7f4dc34bf42650af7c59c38", "province": "\u6cb3\u5317\u7701", "area": "\u957f\u5b89\u533a", "city": "\u77f3\u5bb6\u5e84\u5e02", "location": {"lat": 38.044606, "lng": 114.518923}, "name": "\u5eb7\u529b\u7535\u68af\u6cb3\u5317\u5206\u516c\u53f8", "address": "\u6cb3\u5317\u7701\u77f3\u5bb6\u5e84\u5e02\u957f\u5b89\u533a\u5efa\u8bbe\u5357\u5927\u885729\u53f7\u4f17\u946b\u5927\u53a6818\u5ba4", "detail": 1}, {"uid": "5020ae384c37756ea1a93483", "street_id": "5020ae384c37756ea1a93483", "province": "\u6cb3\u5317\u7701", "area": "\u957f\u5b89\u533a", "city": "\u77f3\u5bb6\u5e84\u5e02", "location": {"lat": 38.044639, "lng": 114.519277}, "name": "\u77f3\u5bb6\u5e84\u81f4\u89c2\u5de5\u7a0b\u6280\u672f\u54a8\u8be2\u6709\u9650\u516c\u53f8", "address": "\u5efa\u8bbe\u5357\u5927\u885729\u53f7\u4f17\u946b\u5927\u53a6", "detail": 1}, {"uid": "7e7a22f5e8a3c8dcede4a523", "street_id": "7e7a22f5e8a3c8dcede4a523", "province": "\u6cb3\u5317\u7701", "area": "\u957f\u5b89\u533a", "city": "\u77f3\u5bb6\u5e84\u5e02", "telephone": "(0311)69004572", "location": {"lat": 38.04477, "lng": 114.519302}, "name": "\u5c1a\u54c1\u9762\u5427", "address": "\u77f3\u5bb6\u5e84\u5e02\u957f\u5b89\u533a\u5efa\u8bbe\u5357\u5927\u8857\u4f17\u946b\u5927\u53a61\u5c42", "detail": 1}][{"uid": "04a3e494290e986958f6be67", "street_id": "04a3e494290e986958f6be67", "province": "\u6cb3\u5317\u7701", "area": "\u957f\u5b89\u533a", "city": "\u77f3\u5bb6\u5e84\u5e02", "location": {"lat": 38.044606, "lng": 114.519169}, "name": "\u4f17\u946b\u5927\u53a6", "address": "\u6cb3\u5317\u7701\u77f3\u5bb6\u5e84\u5e02\u5efa\u8bbe\u5357\u5927\u885729\u53f7", "detail": 1}, {"uid": "38809518c32a692bd3ff23fd", "street_id": "38809518c32a692bd3ff23fd", "province": "\u6cb3\u5317\u7701", "area": "\u957f\u5b89\u533a", "city": "\u77f3\u5bb6\u5e84\u5e02", "location": {"lat": 38.04488, "lng": 114.519364}, "name": "\u4f17\u946b\u5927\u53a6-\u505c\u8f66\u573a", "address": "\u6cb3\u5317\u7701\u77f3\u5bb6\u5e84\u5e02\u957f\u5b89\u533a\u5efa\u8bbe\u5357\u5927\u885729\u53f7", "detail": 1}, {"uid": "49bc668e53fe3353a11de991", "street_id": "49bc668e53fe3353a11de991", "province": "\u6cb3\u5317\u7701", "area": "\u957f\u5b89\u533a", "city": "\u77f3\u5bb6\u5e84\u5e02", "location": {"lat": 38.044343, "lng": 114.519383}, "name": "\u534e\u6cf0\u4fdd\u9669(\u6cb3\u5317\u7701\u5206\u516c\u53f8)", "address": "\u6cb3\u5317\u7701\u77f3\u5bb6\u5e84\u5e02\u5efa\u8bbe\u5357\u5927\u885729\u53f7\u4f17\u946b\u5927\u53a616\u5c42", "detail": 1}, {"uid": "3fd30f8c4bd72aec58f6be65", "street_id": "3fd30f8c4bd72aec58f6be65", "province": "\u6cb3\u5317\u7701", "area": "\u957f\u5b89\u533a", "city": "\u77f3\u5bb6\u5e84\u5e02", "location": {"lat": 38.045285, "lng": 114.518779}, "name": "\u77f3\u5bb6\u5e84\u52a0\u58f9\u5efa\u7b51\u8bbe\u8ba1\u516c\u53f8", "address": "\u5efa\u8bbe\u5357\u5927\u885729\u53f7\u4f17\u946b\u5927\u53a622\u5c42", "detail": 1}, {"uid": "c63b13f1984c551808ccdd35", "street_id": "c63b13f1984c551808ccdd35", "province": "\u6cb3\u5317\u7701", "area": "\u957f\u5b89\u533a", "city": "\u77f3\u5bb6\u5e84\u5e02", "location": {"lat": 38.044888, "lng": 114.519376}, "name": "\u4f17\u946b\u5927\u53a6-\u5730\u4e0b\u505c\u8f66\u573a", "address": "\u5efa\u8bbe\u5357\u5927\u885729\u53f7", "detail": 1}, {"uid": "34f1010c16e3c724b9df8f0c", "street_id": "34f1010c16e3c724b9df8f0c", "province": "\u6cb3\u5317\u7701", "area": "\u957f\u5b89\u533a", "city": "\u77f3\u5bb6\u5e84\u5e02", "location": {"lat": 38.044486, "lng": 114.518699}, "name": "\u90af\u90f8\u94f6\u884c-24\u5c0f\u65f6\u81ea\u52a9\u94f6\u884c", "address": "\u77f3\u5bb6\u5e84\u5e02\u957f\u5b89\u533a\u5efa\u8bbe\u5357\u5927\u885729\u53f7\u9644\u8fd1", "detail": 1}, {"uid": "5fab7d084ccd323ec9c3db93", "street_id": "5fab7d084ccd323ec9c3db93", "province": "\u6cb3\u5317\u7701", "area": "\u957f\u5b89\u533a", "city": "\u77f3\u5bb6\u5e84\u5e02", "location": {"lat": 38.0446, "lng": 114.519542}, "name": "\u77f3\u5bb6\u5e84\u5e02\u5e02\u5bb9\u7ba1\u7406\u8003\u8bc4\u529e\u516c\u5ba4", "address": "\u6cb3\u5317\u7701\u77f3\u5bb6\u5e84\u5e02\u957f\u5b89\u533a\u5efa\u8bbe\u5357\u5927\u885729\u53f7\u4f17\u946b\u5927\u53a611/12\u5c42", "detail": 1}, {"uid": "b7f4dc34bf42650af7c59c38", "street_id": "b7f4dc34bf42650af7c59c38", "province": "\u6cb3\u5317\u7701", "area": "\u957f\u5b89\u533a", "city": "\u77f3\u5bb6\u5e84\u5e02", "location": {"lat": 38.044606, "lng": 114.518923}, "name": "\u5eb7\u529b\u7535\u68af\u6cb3\u5317\u5206\u516c\u53f8", "address": "\u6cb3\u5317\u7701\u77f3\u5bb6\u5e84\u5e02\u957f\u5b89\u533a\u5efa\u8bbe\u5357\u5927\u885729\u53f7\u4f17\u946b\u5927\u53a6818\u5ba4", "detail": 1}, {"uid": "5020ae384c37756ea1a93483", "street_id": "5020ae384c37756ea1a93483", "province": "\u6cb3\u5317\u7701", "area": "\u957f\u5b89\u533a", "city": "\u77f3\u5bb6\u5e84\u5e02", "location": {"lat": 38.044639, "lng": 114.519277}, "name": "\u77f3\u5bb6\u5e84\u81f4\u89c2\u5de5\u7a0b\u6280\u672f\u54a8\u8be2\u6709\u9650\u516c\u53f8", "address": "\u5efa\u8bbe\u5357\u5927\u885729\u53f7\u4f17\u946b\u5927\u53a6", "detail": 1}, {"uid": "7e7a22f5e8a3c8dcede4a523", "street_id": "7e7a22f5e8a3c8dcede4a523", "province": "\u6cb3\u5317\u7701", "area": "\u957f\u5b89\u533a", "city": "\u77f3\u5bb6\u5e84\u5e02", "telephone": "(0311)69004572", "location": {"lat": 38.04477, "lng": 114.519302}, "name": "\u5c1a\u54c1\u9762\u5427", "address": "\u77f3\u5bb6\u5e84\u5e02\u957f\u5b89\u533a\u5efa\u8bbe\u5357\u5927\u8857\u4f17\u946b\u5927\u53a61\u5c42", "detail": 1}][][][][][{"area": "\u957f\u5b89\u533a", "province": "\u6cb3\u5317\u7701", "address": "\u6cb3\u5317\u7701\u77f3\u5bb6\u5e84\u5e02\u5efa\u8bbe\u5357\u5927\u885729\u53f7", "city": "\u77f3\u5bb6\u5e84\u5e02", "name": "\u4f17\u946b\u5927\u53a6", "location": {"lat": 38.044606, "lng": 114.519169}, "street_id": "04a3e494290e986958f6be67", "uid": "04a3e494290e986958f6be67", "detail": 1}, {"area": "\u957f\u5b89\u533a", "province": "\u6cb3\u5317\u7701", "address": "\u6cb3\u5317\u7701\u77f3\u5bb6\u5e84\u5e02\u957f\u5b89\u533a\u5efa\u8bbe\u5357\u5927\u885729\u53f7", "city": "\u77f3\u5bb6\u5e84\u5e02", "name": "\u4f17\u946b\u5927\u53a6-\u505c\u8f66\u573a", "location": {"lat": 38.04488, "lng": 114.519364}, "street_id": "38809518c32a692bd3ff23fd", "uid": "38809518c32a692bd3ff23fd", "detail": 1}, {"area": "\u957f\u5b89\u533a", "province": "\u6cb3\u5317\u7701", "address": "\u6cb3\u5317\u7701\u77f3\u5bb6\u5e84\u5e02\u5efa\u8bbe\u5357\u5927\u885729\u53f7\u4f17\u946b\u5927\u53a616\u5c42", "city": "\u77f3\u5bb6\u5e84\u5e02", "name": "\u534e\u6cf0\u4fdd\u9669(\u6cb3\u5317\u7701\u5206\u516c\u53f8)", "location": {"lat": 38.044343, "lng": 114.519383}, "street_id": "49bc668e53fe3353a11de991", "uid": "49bc668e53fe3353a11de991", "detail": 1}, {"area": "\u957f\u5b89\u533a", "province": "\u6cb3\u5317\u7701", "address": "\u5efa\u8bbe\u5357\u5927\u885729\u53f7\u4f17\u946b\u5927\u53a622\u5c42", "city": "\u77f3\u5bb6\u5e84\u5e02", "name": "\u77f3\u5bb6\u5e84\u52a0\u58f9\u5efa\u7b51\u8bbe\u8ba1\u516c\u53f8", "location": {"lat": 38.045285, "lng": 114.518779}, "street_id": "3fd30f8c4bd72aec58f6be65", "uid": "3fd30f8c4bd72aec58f6be65", "detail": 1}, {"area": "\u957f\u5b89\u533a", "province": "\u6cb3\u5317\u7701", "address": "\u5efa\u8bbe\u5357\u5927\u885729\u53f7", "city": "\u77f3\u5bb6\u5e84\u5e02", "name": "\u4f17\u946b\u5927\u53a6-\u5730\u4e0b\u505c\u8f66\u573a", "location": {"lat": 38.044888, "lng": 114.519376}, "street_id": "c63b13f1984c551808ccdd35", "uid": "c63b13f1984c551808ccdd35", "detail": 1}, {"area": "\u957f\u5b89\u533a", "province": "\u6cb3\u5317\u7701", "address": "\u77f3\u5bb6\u5e84\u5e02\u957f\u5b89\u533a\u5efa\u8bbe\u5357\u5927\u885729\u53f7\u9644\u8fd1", "city": "\u77f3\u5bb6\u5e84\u5e02", "name": "\u90af\u90f8\u94f6\u884c-24\u5c0f\u65f6\u81ea\u52a9\u94f6\u884c", "location": {"lat": 38.044486, "lng": 114.518699}, "street_id": "34f1010c16e3c724b9df8f0c", "uid": "34f1010c16e3c724b9df8f0c", "detail": 1}, {"area": "\u957f\u5b89\u533a", "province": "\u6cb3\u5317\u7701", "address": "\u6cb3\u5317\u7701\u77f3\u5bb6\u5e84\u5e02\u957f\u5b89\u533a\u5efa\u8bbe\u5357\u5927\u885729\u53f7\u4f17\u946b\u5927\u53a611/12\u5c42", "city": "\u77f3\u5bb6\u5e84\u5e02", "name": "\u77f3\u5bb6\u5e84\u5e02\u5e02\u5bb9\u7ba1\u7406\u8003\u8bc4\u529e\u516c\u5ba4", "location": {"lat": 38.0446, "lng": 114.519542}, "street_id": "5fab7d084ccd323ec9c3db93", "uid": "5fab7d084ccd323ec9c3db93", "detail": 1}, {"area": "\u957f\u5b89\u533a", "province": "\u6cb3\u5317\u7701", "address": "\u6cb3\u5317\u7701\u77f3\u5bb6\u5e84\u5e02\u957f\u5b89\u533a\u5efa\u8bbe\u5357\u5927\u885729\u53f7\u4f17\u946b\u5927\u53a6818\u5ba4", "city": "\u77f3\u5bb6\u5e84\u5e02", "name": "\u5eb7\u529b\u7535\u68af\u6cb3\u5317\u5206\u516c\u53f8", "location": {"lat": 38.044606, "lng": 114.518923}, "street_id": "b7f4dc34bf42650af7c59c38", "uid": "b7f4dc34bf42650af7c59c38", "detail": 1}, {"area": "\u957f\u5b89\u533a", "province": "\u6cb3\u5317\u7701", "address": "\u5efa\u8bbe\u5357\u5927\u885729\u53f7\u4f17\u946b\u5927\u53a6", "city": "\u77f3\u5bb6\u5e84\u5e02", "name": "\u77f3\u5bb6\u5e84\u81f4\u89c2\u5de5\u7a0b\u6280\u672f\u54a8\u8be2\u6709\u9650\u516c\u53f8", "location": {"lat": 38.044639, "lng": 114.519277}, "street_id": "5020ae384c37756ea1a93483", "uid": "5020ae384c37756ea1a93483", "detail": 1}, {"area": "\u957f\u5b89\u533a", "telephone": "(0311)69004572", "province": "\u6cb3\u5317\u7701", "address": "\u77f3\u5bb6\u5e84\u5e02\u957f\u5b89\u533a\u5efa\u8bbe\u5357\u5927\u8857\u4f17\u946b\u5927\u53a61\u5c42", "city": "\u77f3\u5bb6\u5e84\u5e02", "name": "\u5c1a\u54c1\u9762\u5427", "location": {"lat": 38.04477, "lng": 114.519302}, "street_id": "7e7a22f5e8a3c8dcede4a523", "uid": "7e7a22f5e8a3c8dcede4a523", "detail": 1}][][{"area": "\u6865\u897f\u533a", "province": "\u6cb3\u5317\u7701", "address": "\u65b0\u77f3\u5357\u8def229\u53f7", "city": "\u77f3\u5bb6\u5e84\u5e02", "name": "\u6cb3\u5317\u4e2d\u533b\u5b66\u9662\u5bb6\u5c5e\u9662", "location": {"lat": 38.015537, "lng": 114.462674}, "street_id": "6113ef77b27962148e77276e", "uid": "6113ef77b27962148e77276e", "detail": 1}, {"area": "\u6865\u897f\u533a", "province": "\u6cb3\u5317\u7701", "address": "\u77f3\u5bb6\u5e84\u5e02\u6865\u897f\u533a\u65b0\u77f3\u5357\u8def229\u53f7", "city": "\u77f3\u5bb6\u5e84\u5e02", "name": "\u6cb3\u5317\u533b\u79d1\u5927\u5b66\u4e2d\u533b\u5b66\u9662\u5bbf\u820d-11\u53f7\u697c", "location": {"lat": 38.016139, "lng": 114.462318}, "street_id": "f18c561a4bdab76ec91b9598", "uid": "f18c561a4bdab76ec91b9598", "detail": 1}, {"area": "\u6865\u897f\u533a", "province": "\u6cb3\u5317\u7701", "address": "\u65b0\u77f3\u5357\u8def229\u53f7\u9644\u8fd1", "city": "\u77f3\u5bb6\u5e84\u5e02", "name": "\u7efc\u5408\u6c34\u4ea7\u5e97", "location": {"lat": 38.015263, "lng": 114.463422}, "street_id": "73be331f6ae91341b34c49cd", "uid": "73be331f6ae91341b34c49cd", "detail": 1}, {"area": "\u6865\u897f\u533a", "province": "\u6cb3\u5317\u7701", "address": "\u6cb3\u5317\u7701\u77f3\u5bb6\u5e84\u5e02\u6865\u897f\u533a\u65b0\u77f3\u5357\u8def229\u53f7", "city": "\u77f3\u5bb6\u5e84\u5e02", "name": "\u8c46\u8150\u574a", "location": {"lat": 38.015033, "lng": 114.463316}, "street_id": "ed4c7f2dda24312421026287", "uid": "ed4c7f2dda24312421026287", "detail": 1}, {"area": "\u6865\u897f\u533a", "province": "\u6cb3\u5317\u7701", "address": "\u77f3\u5bb6\u5e84\u6865\u897f\u533a\u65b0\u77f3\u5357\u8def229\u53f7", "city": "\u77f3\u5bb6\u5e84\u5e02", "name": "\u4f1a\u53cb\u5ddd\u5473\u9910\u5385", "location": {"lat": 38.015212, "lng": 114.463156}, "street_id": "8f4c83db231cdeb3f942b29a", "uid": "8f4c83db231cdeb3f942b29a", "detail": 1}, {"area": "\u6865\u897f\u533a", "province": "\u6cb3\u5317\u7701", "address": "\u6cb3\u5317\u7701\u77f3\u5bb6\u5e84\u5e02\u6865\u897f\u533a\u65b0\u77f3\u5357\u8def229\u53f7", "city": "\u77f3\u5bb6\u5e84\u5e02", "name": "\u6cb3\u5317\u4e2d\u533b\u5b66\u9662\u6a58\u6cc9\u6821\u533a-\u79bb\u9000\u4f11\u4eba\u5458\u6d3b\u52a8\u4e2d\u5fc3", "location": {"lat": 38.015067, "lng": 114.463229}, "street_id": "adc73762627b284c6e20b9f0", "uid": "adc73762627b284c6e20b9f0", "detail": 1}, {"area": "\u6865\u897f\u533a", "province": "\u6cb3\u5317\u7701", "address": "\u6cb3\u5317\u7701\u77f3\u5bb6\u5e84\u5e02\u6865\u897f\u533a\u65b0\u77f3\u5357\u8def229\u53f7", "city": "\u77f3\u5bb6\u5e84\u5e02", "name": "\u65b0\u4e2d\u9c9c\u83dc\u5e97", "location": {"lat": 38.015263, "lng": 114.463279}, "street_id": "2e76bee857a4c8b09122e052", "uid": "2e76bee857a4c8b09122e052", "detail": 1}, {"area": "\u6865\u897f\u533a", "province": "\u6cb3\u5317\u7701", "address": "\u6cb3\u5317\u7701\u77f3\u5bb6\u5e84\u5e02\u6865\u897f\u533a\u65b0\u77f3\u5357\u8def229\u53f7", "city": "\u77f3\u5bb6\u5e84\u5e02", "name": "\u91cd\u5e86\u9171\u83dc", "location": {"lat": 38.014828, "lng": 114.463317}, "street_id": "687008c3d3325764213bf24b", "uid": "687008c3d3325764213bf24b", "detail": 1}][{"area": "\u6b63\u5b9a\u53bf", "province": "\u6cb3\u5317\u7701", "address": "\u6cb3\u5317\u7701\u77f3\u5bb6\u5e84\u5e02\u6b63\u5b9a\u53bf\u6210\u5fb7\u5317\u88571\u53f7", "city": "\u77f3\u5bb6\u5e84\u5e02", "name": "\u534e\u5317\u95e8\u4e1a\u535a\u89c8\u4e2d\u5fc3-\u4e1c\u95e8", "location": {"lat": 38.16033, "lng": 114.565905}, "street_id": "3c9786884e7748d817948e19", "uid": "3c9786884e7748d817948e19", "detail": 1}, {"area": "\u6b63\u5b9a\u53bf", "province": "\u6cb3\u5317\u7701", "address": "\u6cb3\u5317\u7701\u77f3\u5bb6\u5e84\u5e02\u6b63\u5b9a\u53bf\u6210\u5fb7\u5317\u88571\u53f7", "city": "\u77f3\u5bb6\u5e84\u5e02", "name": "\u534e\u5317\u95e8\u4e1a\u535a\u89c8\u4e2d\u5fc3-\u5730\u4e0b\u505c\u8f66\u573a", "location": {"lat": 38.16092, "lng": 114.566115}, "street_id": "8f725390a2febbe00089728a", "uid": "8f725390a2febbe00089728a", "detail": 1}, {"area": "\u6b63\u5b9a\u53bf", "province": "\u6cb3\u5317\u7701", "address": "\u6210\u5fb7\u5357\u88571\u53f7\u9644\u8fd1", "city": "\u77f3\u5bb6\u5e84\u5e02", "name": "\u534e\u5317\u95e8\u4e1a\u535a\u89c8\u4e2d\u5fc3-B\u5ea7\u516c\u5bd3\u4e00", "location": {"lat": 38.159573, "lng": 114.565568}, "street_id": "3684db29c8e22dea0bccddc4", "uid": "3684db29c8e22dea0bccddc4", "detail": 1}, {"area": "\u6b63\u5b9a\u53bf", "province": "\u6cb3\u5317\u7701", "address": "\u627f\u5fb7\u88571\u53f7\u534e\u5317\u95e8\u4e1a\u535a\u89c8\u4e2d\u5fc31\u5c42", "city": "\u77f3\u5bb6\u5e84\u5e02", "name": "\u5927\u5fb7\u6728\u95e8", "location": {"lat": 38.160198, "lng": 114.565388}, "street_id": "1ccf25876d8b908b0ab93ad3", "uid": "1ccf25876d8b908b0ab93ad3", "detail": 1}, {"area": "\u6b63\u5b9a\u53bf", "province": "\u6cb3\u5317\u7701", "address": "\u6210\u5fb7\u5357\u88571\u53f7\u9644\u8fd1", "city": "\u77f3\u5bb6\u5e84\u5e02", "name": "\u534e\u5317\u95e8\u4e1a\u535a\u89c8\u4e2d\u5fc3B\u5ea7\u516c\u5bd3-\u4e8c", "location": {"lat": 38.159585, "lng": 114.565266}, "street_id": "f14ef404d219fc8e7bb55c23", "uid": "f14ef404d219fc8e7bb55c23", "detail": 1}, {"area": "\u6b63\u5b9a\u53bf", "province": "\u6cb3\u5317\u7701", "address": "\u6210\u5fb7\u5357\u88571\u53f7\u9644\u8fd1", "city": "\u77f3\u5bb6\u5e84\u5e02", "name": "\u534e\u5317\u95e8\u4e1a\u535a\u89c8\u4e2d\u5fc3B\u5ea7\u516c\u5bd3-\u5357\u95e8", "location": {"lat": 38.159636, "lng": 114.565372}, "street_id": "c76d025a75268d83aa059d1d", "uid": "c76d025a75268d83aa059d1d", "detail": 1}][{"area": "\u957f\u5b89\u533a", "province": "\u6cb3\u5317\u7701", "address": "\u5efa\u660e\u5357\u8def1\u53f7\uff08\u5efa\u534e\u5927\u8857\u4ea4\u5efa\u660e\u5357\u8def\u897f\u884c300\u7c73\u8def\u5317\uff09", "city": "\u77f3\u5bb6\u5e84\u5e02", "name": "\u7eff\u8272\u5bb6\u56ed", "location": {"lat": 38.044994, "lng": 114.549128}, "street_id": "4b93b43a80df184ffea77893", "uid": "4b93b43a80df184ffea77893", "detail": 1}, {"area": "\u957f\u5b89\u533a", "telephone": "(0311)85116588", "province": "\u6cb3\u5317\u7701", "address": "\u5efa\u660e\u5357\u8def1\u53f7\u7eff\u8272\u5bb6\u56ed\u5546\u4e1a\u697c102\u53f7", "city": "\u77f3\u5bb6\u5e84\u5e02", "name": "\u5bb6\u8d2d\u7efc\u5408\u8d85\u5e02", "location": {"lat": 38.044209, "lng": 114.549112}, "detail": 1, "uid": "aeb958415368d057d23ce355"}, {"area": "\u957f\u5b89\u533a", "province": "\u6cb3\u5317\u7701", "address": "\u5efa\u660e\u5357\u8def1\u53f7\u9644\u8fd1", "city": "\u77f3\u5bb6\u5e84\u5e02", "name": "\u7eff\u8272\u5bb6\u56ed-\u53571\u95e8", "location": {"lat": 38.044163, "lng": 114.548718}, "detail": 1, "uid": "b0ed73b793a853b986420edb"}, {"area": "\u957f\u5b89\u533a", "province": "\u6cb3\u5317\u7701", "address": "\u5efa\u660e\u5357\u8def1\u53f7", "city": "\u77f3\u5bb6\u5e84\u5e02", "name": "\u9a6c\u8001\u4e8c\u5170\u5dde\u62c9\u9762\u5927\u76d8\u9e21\u4e8c\u5341\u4e09\u5206\u5e97", "location": {"lat": 38.04417, "lng": 114.548887}, "detail": 1, "uid": "2950d057cc96b721c5effbaf"}, {"area": "\u957f\u5b89\u533a", "province": "\u6cb3\u5317\u7701", "address": "\u5efa\u534e\u5357\u8857\u9053\u5efa\u660e\u5357\u8def1\u53f7", "city": "\u77f3\u5bb6\u5e84\u5e02", "name": "\u54c1\u9a8f\u5feb\u9012\u65b9\u5317\u914d\u9001\u7ad9\u6cb3\u5317\u54c1\u9a8f\u7269\u6d41\u6709\u9650\u516c\u53f8\u5efa\u660e\u5357\u8def\u5206\u516c\u53f8", "location": {"lat": 38.04417, "lng": 114.548887}, "detail": 1, "uid": "49006d9d8776eeec2fb96dfa"}, {"area": "\u957f\u5b89\u533a", "province": "\u6cb3\u5317\u7701", "address": "\u5efa\u660e\u5357\u8def16\u53f7\u946b\u6c34\u56ed\u5546\u52a1\u697ca\u5ea7", "city": "\u77f3\u5bb6\u5e84\u5e02", "name": "\u77f3\u5bb6\u5e84\u5e02\u5efa\u7b51\u88c5\u9970\u6750\u6599\u5de5\u7a0b\u6280\u672f\u7814\u7a76\u4e2d\u5fc3", "location": {"lat": 38.043973, "lng": 114.549564}, "detail": 1, "uid": "f56657eb7b4a804b85420ed5"}, {"area": "\u957f\u5b89\u533a", "telephone": "15075133909", "province": "\u6cb3\u5317\u7701", "address": "\u77f3\u5bb6\u5e84\u5e02\u957f\u5b89\u533a\u5efa\u660e\u5357\u8def1\u53f7", "city": "\u77f3\u5bb6\u5e84\u5e02", "name": "\u7b77\u5ba2\u9178\u8fa3\u7c89\u9505\u9b41", "location": {"lat": 38.044205, "lng": 114.549129}, "detail": 1, "uid": "b8f24ab6ed382a00882fb513"}, {"area": "\u957f\u5b89\u533a", "province": "\u6cb3\u5317\u7701", "address": "\u5efa\u660e\u5357\u8def1\u53f7\u9644\u8fd1", "city": "\u77f3\u5bb6\u5e84\u5e02", "name": "\u6811\u8bda\u7efc\u5408\u5546\u5e97\u4fbf\u5229\u5e97", "location": {"lat": 38.044196, "lng": 114.548923}, "detail": 1, "uid": "1c70dd663e8d958c6e20b9a0"}, {"area": "\u957f\u5b89\u533a", "province": "\u6cb3\u5317\u7701", "address": "\u6cb3\u4e1c\u8857\u9053\u534e\u6e05\u5357\u8857\u5efa\u660e\u5357\u8def1\u53f7\u946b\u6c34\u56ed\u4e1c\u884c100\u7c73\u5546\u4e1a\u529e\u516c\u697cB\u5ea7", "city": "\u77f3\u5bb6\u5e84\u5e02", "name": "\u638c\u8baf", "location": {"lat": 38.043931, "lng": 114.549237}, "detail": 1, "uid": "d0db1b541595f232dc1e528c"}, {"area": "\u957f\u5b89\u533a", "province": "\u6cb3\u5317\u7701", "address": "\u5efa\u660e\u5357\u8def6\u53f7", "city": "\u77f3\u5bb6\u5e84\u5e02", "name": "\u6cb3\u5317\u5e7f\u64ad\u7535\u89c6\u62a5\u5bbf\u820d-1\u53f7\u697c", "location": {"lat": 38.043936, "lng": 114.550635}, "street_id": "da2d4000e025fda7f02d8382", "uid": "f2d4d8a6c925b237f6c59c97", "detail": 1}][{"area": "\u88d5\u534e\u533a", "province": "\u6cb3\u5317\u7701", "address": "\u5efa\u534e\u5357\u5927\u8857130\u53f7B2-9\u53f7", "city": "\u77f3\u5bb6\u5e84\u5e02", "name": "\u5174\u4e1a\u94f6\u884c(\u4e07\u8fbe\u652f\u884c)", "location": {"lat": 38.033868, "lng": 114.552568}, "street_id": "74a3aa465dee8577c1f1cfe2", "uid": "74a3aa465dee8577c1f1cfe2", "detail": 1}, {"area": "\u88d5\u534e\u533a", "province": "\u6cb3\u5317\u7701", "address": "\u77f3\u5bb6\u5e84\u5e02\u88d5\u534e\u533a\u5efa\u534e\u5357\u5927\u8857130\u53f7", "city": "\u77f3\u5bb6\u5e84\u5e02", "name": "\u4e2d\u56fd\u519c\u4e1a\u94f6\u884c(\u77f3\u5bb6\u5e84\u5efa\u534e\u5357\u5927\u8857\u5206\u7406\u5904)", "location": {"lat": 38.033228, "lng": 114.552605}, "street_id": "d5ffb885586a55c261685845", "uid": "d5ffb885586a55c261685845", "detail": 1}, {"area": "\u88d5\u534e\u533a", "province": "\u6cb3\u5317\u7701", "address": "\u5efa\u534e\u5357\u5927\u8857130-56\u53f7\u9644\u8fd1", "city": "\u77f3\u5bb6\u5e84\u5e02", "name": "\u4e2d\u897f\u533b\u8bca\u6240", "location": {"lat": 38.031641, "lng": 114.551358}, "street_id": "7916e9106a770e48c1f1cfaa", "uid": "7916e9106a770e48c1f1cfaa", "detail": 1}, {"area": "\u88d5\u534e\u533a", "province": "\u6cb3\u5317\u7701", "address": "\u5efa\u534e\u5357\u5927\u8857130\u53f7-154\u5e95\u5546", "city": "\u77f3\u5bb6\u5e84\u5e02", "name": "1919\u9152\u7c7b\u76f4\u4f9b\u8fde\u9501\u8d85\u5e02(\u4e07\u8fbe\u5e97)", "location": {"lat": 38.033209, "lng": 114.549721}, "detail": 1, "uid": "cc820f5ea5e923a88f55ecf2"}, {"area": "\u88d5\u534e\u533a", "province": "\u6cb3\u5317\u7701", "address": "\u5efa\u534e\u5357\u5927\u8857130-70\u53f7", "city": "\u77f3\u5bb6\u5e84\u5e02", "name": "YangVape\u7535\u5b50\u70df\u84b8\u6c7d\u4ff1\u4e50\u90e8", "location": {"lat": 38.032493, "lng": 114.551195}, "detail": 1, "uid": "e8434ddcadff95d2c91b9554"}, {"area": "\u88d5\u534e\u533a", "telephone": "13313117699", "province": "\u6cb3\u5317\u7701", "address": "\u6cb3\u5317\u7701\u77f3\u5bb6\u5e84\u5e02\u88d5\u534e\u533a\u88d5\u534e\u533a\u5efa\u534e\u5357\u5927\u8857130-91\u53f7\u4e07\u8fbe\u5e7f\u573aB\u533a10\u53f7\u5546\u94fa120\u53f7", "city": "\u77f3\u5bb6\u5e84\u5e02", "name": "\u7231\u6210\u957f\u6bcd\u5a74\u751f\u6d3b\u9986", "location": {"lat": 38.034289, "lng": 114.551747}, "street_id": "7cafb28b870a04c2246e984d", "uid": "7cafb28b870a04c2246e984d", "detail": 1}, {"area": "\u88d5\u534e\u533a", "province": "\u6cb3\u5317\u7701", "address": "\u5efa\u534e\u5357\u5927\u8857130-12\u53f7\u9644\u8fd1", "city": "\u77f3\u5bb6\u5e84\u5e02", "name": "\u5efa\u8bbe\u94f6\u884c24\u5c0f\u65f6\u81ea\u52a9\u94f6\u884c\u670d\u52a1", "location": {"lat": 38.032529, "lng": 114.552656}, "street_id": "79580bf4acc04ae49d95de9f", "uid": "79580bf4acc04ae49d95de9f", "detail": 1}, {"area": "\u88d5\u534e\u533a", "province": "\u6cb3\u5317\u7701", "address": "\u6cb3\u5317\u7701\u77f3\u5bb6\u5e84\u5e02\u88d5\u534e\u533a\u5efa\u534e\u5357\u5927\u8857130\u53f7", "city": "\u77f3\u5bb6\u5e84\u5e02", "name": "\u4e07\u8fbe\u5e7f\u573aB2\u5317\u533a-\u4e1c\u95e8", "location": {"lat": 38.032836, "lng": 114.552592}, "street_id": "631fbbff5e0adadc6d20b98d", "uid": "631fbbff5e0adadc6d20b98d", "detail": 1}, {"area": "\u88d5\u534e\u533a", "province": "\u6cb3\u5317\u7701", "address": "\u6cb3\u5317\u7701\u77f3\u5bb6\u5e84\u5e02\u88d5\u534e\u533a\u5efa\u534e\u5357\u5927\u8857130-33\u53f7", "city": "\u77f3\u5bb6\u5e84\u5e02", "name": "\u534e\u798f\u8bc1\u5238", "location": {"lat": 38.033546, "lng": 114.552608}, "street_id": "49b32813a5eefbd486420ed0", "uid": "49b32813a5eefbd486420ed0", "detail": 1}, {"area": "\u88d5\u534e\u533a", "province": "\u6cb3\u5317\u7701", "address": "\u5efa\u534e\u5357\u5927\u8857130-64\u53f7", "city": "\u77f3\u5bb6\u5e84\u5e02", "name": "\u6cb3\u5317\u5929\u9e45\u56fd\u9645\u65c5\u884c\u793e\u4e07\u8fbe\u5e97", "location": {"lat": 38.0343, "lng": 114.55263}, "street_id": "5df029c1aab790be4e554764", "uid": "5df029c1aab790be4e554764", "detail": 1}][{"city": "\u77f3\u5bb6\u5e84\u5e02", "detail": 1, "province": "\u6cb3\u5317\u7701", "name": "\u4f17\u946b\u5927\u53a6", "uid": "04a3e494290e986958f6be67", "location": {"lat": 38.044606, "lng": 114.519169}, "area": "\u957f\u5b89\u533a", "street_id": "04a3e494290e986958f6be67", "address": "\u6cb3\u5317\u7701\u77f3\u5bb6\u5e84\u5e02\u5efa\u8bbe\u5357\u5927\u885729\u53f7"}, {"city": "\u77f3\u5bb6\u5e84\u5e02", "detail": 1, "province": "\u6cb3\u5317\u7701", "name": "\u4f17\u946b\u5927\u53a6-\u505c\u8f66\u573a", "uid": "38809518c32a692bd3ff23fd", "location": {"lat": 38.04488, "lng": 114.519364}, "area": "\u957f\u5b89\u533a", "street_id": "38809518c32a692bd3ff23fd", "address": "\u6cb3\u5317\u7701\u77f3\u5bb6\u5e84\u5e02\u957f\u5b89\u533a\u5efa\u8bbe\u5357\u5927\u885729\u53f7"}, {"city": "\u77f3\u5bb6\u5e84\u5e02", "detail": 1, "province": "\u6cb3\u5317\u7701", "name": "\u534e\u6cf0\u4fdd\u9669(\u6cb3\u5317\u7701\u5206\u516c\u53f8)", "uid": "49bc668e53fe3353a11de991", "location": {"lat": 38.044343, "lng": 114.519383}, "area": "\u957f\u5b89\u533a", "street_id": "49bc668e53fe3353a11de991", "address": "\u6cb3\u5317\u7701\u77f3\u5bb6\u5e84\u5e02\u5efa\u8bbe\u5357\u5927\u885729\u53f7\u4f17\u946b\u5927\u53a616\u5c42"}, {"city": "\u77f3\u5bb6\u5e84\u5e02", "detail": 1, "province": "\u6cb3\u5317\u7701", "name": "\u77f3\u5bb6\u5e84\u52a0\u58f9\u5efa\u7b51\u8bbe\u8ba1\u516c\u53f8", "uid": "3fd30f8c4bd72aec58f6be65", "location": {"lat": 38.045285, "lng": 114.518779}, "area": "\u957f\u5b89\u533a", "street_id": "3fd30f8c4bd72aec58f6be65", "address": "\u5efa\u8bbe\u5357\u5927\u885729\u53f7\u4f17\u946b\u5927\u53a622\u5c42"}, {"city": "\u77f3\u5bb6\u5e84\u5e02", "detail": 1, "province": "\u6cb3\u5317\u7701", "name": "\u4f17\u946b\u5927\u53a6-\u5730\u4e0b\u505c\u8f66\u573a", "uid": "c63b13f1984c551808ccdd35", "location": {"lat": 38.044888, "lng": 114.519376}, "area": "\u957f\u5b89\u533a", "street_id": "c63b13f1984c551808ccdd35", "address": "\u5efa\u8bbe\u5357\u5927\u885729\u53f7"}, {"city": "\u77f3\u5bb6\u5e84\u5e02", "detail": 1, "province": "\u6cb3\u5317\u7701", "name": "\u90af\u90f8\u94f6\u884c-24\u5c0f\u65f6\u81ea\u52a9\u94f6\u884c", "uid": "34f1010c16e3c724b9df8f0c", "location": {"lat": 38.044486, "lng": 114.518699}, "area": "\u957f\u5b89\u533a", "street_id": "34f1010c16e3c724b9df8f0c", "address": "\u77f3\u5bb6\u5e84\u5e02\u957f\u5b89\u533a\u5efa\u8bbe\u5357\u5927\u885729\u53f7\u9644\u8fd1"}, {"city": "\u77f3\u5bb6\u5e84\u5e02", "detail": 1, "province": "\u6cb3\u5317\u7701", "name": "\u77f3\u5bb6\u5e84\u5e02\u5e02\u5bb9\u7ba1\u7406\u8003\u8bc4\u529e\u516c\u5ba4", "uid": "5fab7d084ccd323ec9c3db93", "location": {"lat": 38.0446, "lng": 114.519542}, "area": "\u957f\u5b89\u533a", "street_id": "5fab7d084ccd323ec9c3db93", "address": "\u6cb3\u5317\u7701\u77f3\u5bb6\u5e84\u5e02\u957f\u5b89\u533a\u5efa\u8bbe\u5357\u5927\u885729\u53f7\u4f17\u946b\u5927\u53a611/12\u5c42"}, {"city": "\u77f3\u5bb6\u5e84\u5e02", "detail": 1, "province": "\u6cb3\u5317\u7701", "name": "\u5eb7\u529b\u7535\u68af\u6cb3\u5317\u5206\u516c\u53f8", "uid": "b7f4dc34bf42650af7c59c38", "location": {"lat": 38.044606, "lng": 114.518923}, "area": "\u957f\u5b89\u533a", "street_id": "b7f4dc34bf42650af7c59c38", "address": "\u6cb3\u5317\u7701\u77f3\u5bb6\u5e84\u5e02\u957f\u5b89\u533a\u5efa\u8bbe\u5357\u5927\u885729\u53f7\u4f17\u946b\u5927\u53a6818\u5ba4"}, {"city": "\u77f3\u5bb6\u5e84\u5e02", "detail": 1, "province": "\u6cb3\u5317\u7701", "name": "\u77f3\u5bb6\u5e84\u81f4\u89c2\u5de5\u7a0b\u6280\u672f\u54a8\u8be2\u6709\u9650\u516c\u53f8", "uid": "5020ae384c37756ea1a93483", "location": {"lat": 38.044639, "lng": 114.519277}, "area": "\u957f\u5b89\u533a", "street_id": "5020ae384c37756ea1a93483", "address": "\u5efa\u8bbe\u5357\u5927\u885729\u53f7\u4f17\u946b\u5927\u53a6"}, {"city": "\u77f3\u5bb6\u5e84\u5e02", "detail": 1, "province": "\u6cb3\u5317\u7701", "name": "\u5c1a\u54c1\u9762\u5427", "uid": "7e7a22f5e8a3c8dcede4a523", "telephone": "(0311)69004572", "location": {"lat": 38.04477, "lng": 114.519302}, "area": "\u957f\u5b89\u533a", "street_id": "7e7a22f5e8a3c8dcede4a523", "address": "\u77f3\u5bb6\u5e84\u5e02\u957f\u5b89\u533a\u5efa\u8bbe\u5357\u5927\u8857\u4f17\u946b\u5927\u53a61\u5c42"}][][{"name": "\u4f17\u946b\u5927\u53a6", "location": {"lng": 114.519169, "lat": 38.044606}, "address": "\u6cb3\u5317\u7701\u77f3\u5bb6\u5e84\u5e02\u5efa\u8bbe\u5357\u5927\u885729\u53f7", "detail": 1, "uid": "04a3e494290e986958f6be67", "area": "\u957f\u5b89\u533a", "street_id": "04a3e494290e986958f6be67", "city": "\u77f3\u5bb6\u5e84\u5e02", "province": "\u6cb3\u5317\u7701"}, {"name": "\u4f17\u946b\u5927\u53a6-\u505c\u8f66\u573a", "location": {"lng": 114.519364, "lat": 38.04488}, "address": "\u6cb3\u5317\u7701\u77f3\u5bb6\u5e84\u5e02\u957f\u5b89\u533a\u5efa\u8bbe\u5357\u5927\u885729\u53f7", "detail": 1, "uid": "38809518c32a692bd3ff23fd", "area": "\u957f\u5b89\u533a", "street_id": "38809518c32a692bd3ff23fd", "city": "\u77f3\u5bb6\u5e84\u5e02", "province": "\u6cb3\u5317\u7701"}, {"name": "\u534e\u6cf0\u4fdd\u9669(\u6cb3\u5317\u7701\u5206\u516c\u53f8)", "location": {"lng": 114.519383, "lat": 38.044343}, "address": "\u6cb3\u5317\u7701\u77f3\u5bb6\u5e84\u5e02\u5efa\u8bbe\u5357\u5927\u885729\u53f7\u4f17\u946b\u5927\u53a616\u5c42", "detail": 1, "uid": "49bc668e53fe3353a11de991", "area": "\u957f\u5b89\u533a", "street_id": "49bc668e53fe3353a11de991", "city": "\u77f3\u5bb6\u5e84\u5e02", "province": "\u6cb3\u5317\u7701"}, {"name": "\u77f3\u5bb6\u5e84\u52a0\u58f9\u5efa\u7b51\u8bbe\u8ba1\u516c\u53f8", "location": {"lng": 114.518779, "lat": 38.045285}, "address": "\u5efa\u8bbe\u5357\u5927\u885729\u53f7\u4f17\u946b\u5927\u53a622\u5c42", "detail": 1, "uid": "3fd30f8c4bd72aec58f6be65", "area": "\u957f\u5b89\u533a", "street_id": "3fd30f8c4bd72aec58f6be65", "city": "\u77f3\u5bb6\u5e84\u5e02", "province": "\u6cb3\u5317\u7701"}, {"name": "\u4f17\u946b\u5927\u53a6-\u5730\u4e0b\u505c\u8f66\u573a", "location": {"lng": 114.519376, "lat": 38.044888}, "address": "\u5efa\u8bbe\u5357\u5927\u885729\u53f7", "detail": 1, "uid": "c63b13f1984c551808ccdd35", "area": "\u957f\u5b89\u533a", "street_id": "c63b13f1984c551808ccdd35", "city": "\u77f3\u5bb6\u5e84\u5e02", "province": "\u6cb3\u5317\u7701"}, {"name": "\u90af\u90f8\u94f6\u884c-24\u5c0f\u65f6\u81ea\u52a9\u94f6\u884c", "location": {"lng": 114.518699, "lat": 38.044486}, "address": "\u77f3\u5bb6\u5e84\u5e02\u957f\u5b89\u533a\u5efa\u8bbe\u5357\u5927\u885729\u53f7\u9644\u8fd1", "detail": 1, "uid": "34f1010c16e3c724b9df8f0c", "area": "\u957f\u5b89\u533a", "street_id": "34f1010c16e3c724b9df8f0c", "city": "\u77f3\u5bb6\u5e84\u5e02", "province": "\u6cb3\u5317\u7701"}, {"name": "\u77f3\u5bb6\u5e84\u5e02\u5e02\u5bb9\u7ba1\u7406\u8003\u8bc4\u529e\u516c\u5ba4", "location": {"lng": 114.519542, "lat": 38.0446}, "address": "\u6cb3\u5317\u7701\u77f3\u5bb6\u5e84\u5e02\u957f\u5b89\u533a\u5efa\u8bbe\u5357\u5927\u885729\u53f7\u4f17\u946b\u5927\u53a611/12\u5c42", "detail": 1, "uid": "5fab7d084ccd323ec9c3db93", "area": "\u957f\u5b89\u533a", "street_id": "5fab7d084ccd323ec9c3db93", "city": "\u77f3\u5bb6\u5e84\u5e02", "province": "\u6cb3\u5317\u7701"}, {"name": "\u5eb7\u529b\u7535\u68af\u6cb3\u5317\u5206\u516c\u53f8", "location": {"lng": 114.518923, "lat": 38.044606}, "address": "\u6cb3\u5317\u7701\u77f3\u5bb6\u5e84\u5e02\u957f\u5b89\u533a\u5efa\u8bbe\u5357\u5927\u885729\u53f7\u4f17\u946b\u5927\u53a6818\u5ba4", "detail": 1, "uid": "b7f4dc34bf42650af7c59c38", "area": "\u957f\u5b89\u533a", "street_id": "b7f4dc34bf42650af7c59c38", "city": "\u77f3\u5bb6\u5e84\u5e02", "province": "\u6cb3\u5317\u7701"}, {"name": "\u77f3\u5bb6\u5e84\u81f4\u89c2\u5de5\u7a0b\u6280\u672f\u54a8\u8be2\u6709\u9650\u516c\u53f8", "location": {"lng": 114.519277, "lat": 38.044639}, "address": "\u5efa\u8bbe\u5357\u5927\u885729\u53f7\u4f17\u946b\u5927\u53a6", "detail": 1, "uid": "5020ae384c37756ea1a93483", "area": "\u957f\u5b89\u533a", "street_id": "5020ae384c37756ea1a93483", "city": "\u77f3\u5bb6\u5e84\u5e02", "province": "\u6cb3\u5317\u7701"}, {"name": "\u5c1a\u54c1\u9762\u5427", "location": {"lng": 114.519302, "lat": 38.04477}, "address": "\u77f3\u5bb6\u5e84\u5e02\u957f\u5b89\u533a\u5efa\u8bbe\u5357\u5927\u8857\u4f17\u946b\u5927\u53a61\u5c42", "detail": 1, "uid": "7e7a22f5e8a3c8dcede4a523", "area": "\u957f\u5b89\u533a", "street_id": "7e7a22f5e8a3c8dcede4a523", "city": "\u77f3\u5bb6\u5e84\u5e02", "telephone": "(0311)69004572", "province": "\u6cb3\u5317\u7701"}][{"city": "\u77f3\u5bb6\u5e84\u5e02", "address": "\u6cb3\u5317\u7701\u77f3\u5bb6\u5e84\u5e02\u5efa\u8bbe\u5357\u5927\u885729\u53f7", "street_id": "04a3e494290e986958f6be67", "name": "\u4f17\u946b\u5927\u53a6", "location": {"lat": 38.044606, "lng": 114.519169}, "uid": "04a3e494290e986958f6be67", "province": "\u6cb3\u5317\u7701", "detail": 1, "area": "\u957f\u5b89\u533a"}, {"city": "\u77f3\u5bb6\u5e84\u5e02", "address": "\u6cb3\u5317\u7701\u77f3\u5bb6\u5e84\u5e02\u957f\u5b89\u533a\u5efa\u8bbe\u5357\u5927\u885729\u53f7", "street_id": "38809518c32a692bd3ff23fd", "name": "\u4f17\u946b\u5927\u53a6-\u505c\u8f66\u573a", "location": {"lat": 38.04488, "lng": 114.519364}, "uid": "38809518c32a692bd3ff23fd", "province": "\u6cb3\u5317\u7701", "detail": 1, "area": "\u957f\u5b89\u533a"}, {"city": "\u77f3\u5bb6\u5e84\u5e02", "address": "\u6cb3\u5317\u7701\u77f3\u5bb6\u5e84\u5e02\u5efa\u8bbe\u5357\u5927\u885729\u53f7\u4f17\u946b\u5927\u53a616\u5c42", "street_id": "49bc668e53fe3353a11de991", "name": "\u534e\u6cf0\u4fdd\u9669(\u6cb3\u5317\u7701\u5206\u516c\u53f8)", "location": {"lat": 38.044343, "lng": 114.519383}, "uid": "49bc668e53fe3353a11de991", "province": "\u6cb3\u5317\u7701", "detail": 1, "area": "\u957f\u5b89\u533a"}, {"city": "\u77f3\u5bb6\u5e84\u5e02", "address": "\u5efa\u8bbe\u5357\u5927\u885729\u53f7\u4f17\u946b\u5927\u53a622\u5c42", "street_id": "3fd30f8c4bd72aec58f6be65", "name": "\u77f3\u5bb6\u5e84\u52a0\u58f9\u5efa\u7b51\u8bbe\u8ba1\u516c\u53f8", "location": {"lat": 38.045285, "lng": 114.518779}, "uid": "3fd30f8c4bd72aec58f6be65", "province": "\u6cb3\u5317\u7701", "detail": 1, "area": "\u957f\u5b89\u533a"}, {"city": "\u77f3\u5bb6\u5e84\u5e02", "address": "\u5efa\u8bbe\u5357\u5927\u885729\u53f7", "street_id": "c63b13f1984c551808ccdd35", "name": "\u4f17\u946b\u5927\u53a6-\u5730\u4e0b\u505c\u8f66\u573a", "location": {"lat": 38.044888, "lng": 114.519376}, "uid": "c63b13f1984c551808ccdd35", "province": "\u6cb3\u5317\u7701", "detail": 1, "area": "\u957f\u5b89\u533a"}, {"city": "\u77f3\u5bb6\u5e84\u5e02", "address": "\u77f3\u5bb6\u5e84\u5e02\u957f\u5b89\u533a\u5efa\u8bbe\u5357\u5927\u885729\u53f7\u9644\u8fd1", "street_id": "34f1010c16e3c724b9df8f0c", "name": "\u90af\u90f8\u94f6\u884c-24\u5c0f\u65f6\u81ea\u52a9\u94f6\u884c", "location": {"lat": 38.044486, "lng": 114.518699}, "uid": "34f1010c16e3c724b9df8f0c", "province": "\u6cb3\u5317\u7701", "detail": 1, "area": "\u957f\u5b89\u533a"}, {"city": "\u77f3\u5bb6\u5e84\u5e02", "address": "\u6cb3\u5317\u7701\u77f3\u5bb6\u5e84\u5e02\u957f\u5b89\u533a\u5efa\u8bbe\u5357\u5927\u885729\u53f7\u4f17\u946b\u5927\u53a611/12\u5c42", "street_id": "5fab7d084ccd323ec9c3db93", "name": "\u77f3\u5bb6\u5e84\u5e02\u5e02\u5bb9\u7ba1\u7406\u8003\u8bc4\u529e\u516c\u5ba4", "location": {"lat": 38.0446, "lng": 114.519542}, "uid": "5fab7d084ccd323ec9c3db93", "province": "\u6cb3\u5317\u7701", "detail": 1, "area": "\u957f\u5b89\u533a"}, {"city": "\u77f3\u5bb6\u5e84\u5e02", "address": "\u6cb3\u5317\u7701\u77f3\u5bb6\u5e84\u5e02\u957f\u5b89\u533a\u5efa\u8bbe\u5357\u5927\u885729\u53f7\u4f17\u946b\u5927\u53a6818\u5ba4", "street_id": "b7f4dc34bf42650af7c59c38", "name": "\u5eb7\u529b\u7535\u68af\u6cb3\u5317\u5206\u516c\u53f8", "location": {"lat": 38.044606, "lng": 114.518923}, "uid": "b7f4dc34bf42650af7c59c38", "province": "\u6cb3\u5317\u7701", "detail": 1, "area": "\u957f\u5b89\u533a"}, {"city": "\u77f3\u5bb6\u5e84\u5e02", "address": "\u5efa\u8bbe\u5357\u5927\u885729\u53f7\u4f17\u946b\u5927\u53a6", "street_id": "5020ae384c37756ea1a93483", "name": "\u77f3\u5bb6\u5e84\u81f4\u89c2\u5de5\u7a0b\u6280\u672f\u54a8\u8be2\u6709\u9650\u516c\u53f8", "location": {"lat": 38.044639, "lng": 114.519277}, "uid": "5020ae384c37756ea1a93483", "province": "\u6cb3\u5317\u7701", "detail": 1, "area": "\u957f\u5b89\u533a"}, {"city": "\u77f3\u5bb6\u5e84\u5e02", "address": "\u77f3\u5bb6\u5e84\u5e02\u957f\u5b89\u533a\u5efa\u8bbe\u5357\u5927\u8857\u4f17\u946b\u5927\u53a61\u5c42", "street_id": "7e7a22f5e8a3c8dcede4a523", "telephone": "(0311)69004572", "name": "\u5c1a\u54c1\u9762\u5427", "location": {"lat": 38.04477, "lng": 114.519302}, "uid": "7e7a22f5e8a3c8dcede4a523", "province": "\u6cb3\u5317\u7701", "detail": 1, "area": "\u957f\u5b89\u533a"}][][{"city": "\u77f3\u5bb6\u5e84\u5e02", "address": "\u65b0\u77f3\u5357\u8def229\u53f7", "street_id": "6113ef77b27962148e77276e", "name": "\u6cb3\u5317\u4e2d\u533b\u5b66\u9662\u5bb6\u5c5e\u9662", "location": {"lat": 38.015537, "lng": 114.462674}, "uid": "6113ef77b27962148e77276e", "province": "\u6cb3\u5317\u7701", "detail": 1, "area": "\u6865\u897f\u533a"}, {"city": "\u77f3\u5bb6\u5e84\u5e02", "address": "\u77f3\u5bb6\u5e84\u5e02\u6865\u897f\u533a\u65b0\u77f3\u5357\u8def229\u53f7", "street_id": "f18c561a4bdab76ec91b9598", "name": "\u6cb3\u5317\u533b\u79d1\u5927\u5b66\u4e2d\u533b\u5b66\u9662\u5bbf\u820d-11\u53f7\u697c", "location": {"lat": 38.016139, "lng": 114.462318}, "uid": "f18c561a4bdab76ec91b9598", "province": "\u6cb3\u5317\u7701", "detail": 1, "area": "\u6865\u897f\u533a"}, {"city": "\u77f3\u5bb6\u5e84\u5e02", "address": "\u65b0\u77f3\u5357\u8def229\u53f7\u9644\u8fd1", "street_id": "73be331f6ae91341b34c49cd", "name": "\u7efc\u5408\u6c34\u4ea7\u5e97", "location": {"lat": 38.015263, "lng": 114.463422}, "uid": "73be331f6ae91341b34c49cd", "province": "\u6cb3\u5317\u7701", "detail": 1, "area": "\u6865\u897f\u533a"}, {"city": "\u77f3\u5bb6\u5e84\u5e02", "address": "\u6cb3\u5317\u7701\u77f3\u5bb6\u5e84\u5e02\u6865\u897f\u533a\u65b0\u77f3\u5357\u8def229\u53f7", "street_id": "ed4c7f2dda24312421026287", "name": "\u8c46\u8150\u574a", "location": {"lat": 38.015033, "lng": 114.463316}, "uid": "ed4c7f2dda24312421026287", "province": "\u6cb3\u5317\u7701", "detail": 1, "area": "\u6865\u897f\u533a"}, {"city": "\u77f3\u5bb6\u5e84\u5e02", "address": "\u77f3\u5bb6\u5e84\u6865\u897f\u533a\u65b0\u77f3\u5357\u8def229\u53f7", "street_id": "8f4c83db231cdeb3f942b29a", "name": "\u4f1a\u53cb\u5ddd\u5473\u9910\u5385", "location": {"lat": 38.015212, "lng": 114.463156}, "uid": "8f4c83db231cdeb3f942b29a", "province": "\u6cb3\u5317\u7701", "detail": 1, "area": "\u6865\u897f\u533a"}, {"city": "\u77f3\u5bb6\u5e84\u5e02", "address": "\u6cb3\u5317\u7701\u77f3\u5bb6\u5e84\u5e02\u6865\u897f\u533a\u65b0\u77f3\u5357\u8def229\u53f7", "street_id": "adc73762627b284c6e20b9f0", "name": "\u6cb3\u5317\u4e2d\u533b\u5b66\u9662\u6a58\u6cc9\u6821\u533a-\u79bb\u9000\u4f11\u4eba\u5458\u6d3b\u52a8\u4e2d\u5fc3", "location": {"lat": 38.015067, "lng": 114.463229}, "uid": "adc73762627b284c6e20b9f0", "province": "\u6cb3\u5317\u7701", "detail": 1, "area": "\u6865\u897f\u533a"}, {"city": "\u77f3\u5bb6\u5e84\u5e02", "address": "\u6cb3\u5317\u7701\u77f3\u5bb6\u5e84\u5e02\u6865\u897f\u533a\u65b0\u77f3\u5357\u8def229\u53f7", "street_id": "2e76bee857a4c8b09122e052", "name": "\u65b0\u4e2d\u9c9c\u83dc\u5e97", "location": {"lat": 38.015263, "lng": 114.463279}, "uid": "2e76bee857a4c8b09122e052", "province": "\u6cb3\u5317\u7701", "detail": 1, "area": "\u6865\u897f\u533a"}, {"city": "\u77f3\u5bb6\u5e84\u5e02", "address": "\u6cb3\u5317\u7701\u77f3\u5bb6\u5e84\u5e02\u6865\u897f\u533a\u65b0\u77f3\u5357\u8def229\u53f7", "street_id": "687008c3d3325764213bf24b", "name": "\u91cd\u5e86\u9171\u83dc", "location": {"lat": 38.014828, "lng": 114.463317}, "uid": "687008c3d3325764213bf24b", "province": "\u6cb3\u5317\u7701", "detail": 1, "area": "\u6865\u897f\u533a"}][{"street_id": "04a3e494290e986958f6be67", "province": "\u6cb3\u5317\u7701", "uid": "04a3e494290e986958f6be67", "name": "\u4f17\u946b\u5927\u53a6", "area": "\u957f\u5b89\u533a", "location": {"lng": 114.519169, "lat": 38.044606}, "address": "\u6cb3\u5317\u7701\u77f3\u5bb6\u5e84\u5e02\u5efa\u8bbe\u5357\u5927\u885729\u53f7", "detail": 1, "city": "\u77f3\u5bb6\u5e84\u5e02"}, {"street_id": "38809518c32a692bd3ff23fd", "province": "\u6cb3\u5317\u7701", "uid": "38809518c32a692bd3ff23fd", "name": "\u4f17\u946b\u5927\u53a6-\u505c\u8f66\u573a", "area": "\u957f\u5b89\u533a", "location": {"lng": 114.519364, "lat": 38.04488}, "address": "\u6cb3\u5317\u7701\u77f3\u5bb6\u5e84\u5e02\u957f\u5b89\u533a\u5efa\u8bbe\u5357\u5927\u885729\u53f7", "detail": 1, "city": "\u77f3\u5bb6\u5e84\u5e02"}, {"street_id": "49bc668e53fe3353a11de991", "province": "\u6cb3\u5317\u7701", "uid": "49bc668e53fe3353a11de991", "name": "\u534e\u6cf0\u4fdd\u9669(\u6cb3\u5317\u7701\u5206\u516c\u53f8)", "area": "\u957f\u5b89\u533a", "location": {"lng": 114.519383, "lat": 38.044343}, "address": "\u6cb3\u5317\u7701\u77f3\u5bb6\u5e84\u5e02\u5efa\u8bbe\u5357\u5927\u885729\u53f7\u4f17\u946b\u5927\u53a616\u5c42", "detail": 1, "city": "\u77f3\u5bb6\u5e84\u5e02"}, {"street_id": "3fd30f8c4bd72aec58f6be65", "province": "\u6cb3\u5317\u7701", "uid": "3fd30f8c4bd72aec58f6be65", "name": "\u77f3\u5bb6\u5e84\u52a0\u58f9\u5efa\u7b51\u8bbe\u8ba1\u516c\u53f8", "area": "\u957f\u5b89\u533a", "location": {"lng": 114.518779, "lat": 38.045285}, "address": "\u5efa\u8bbe\u5357\u5927\u885729\u53f7\u4f17\u946b\u5927\u53a622\u5c42", "detail": 1, "city": "\u77f3\u5bb6\u5e84\u5e02"}, {"street_id": "c63b13f1984c551808ccdd35", "province": "\u6cb3\u5317\u7701", "uid": "c63b13f1984c551808ccdd35", "name": "\u4f17\u946b\u5927\u53a6-\u5730\u4e0b\u505c\u8f66\u573a", "area": "\u957f\u5b89\u533a", "location": {"lng": 114.519376, "lat": 38.044888}, "address": "\u5efa\u8bbe\u5357\u5927\u885729\u53f7", "detail": 1, "city": "\u77f3\u5bb6\u5e84\u5e02"}, {"street_id": "34f1010c16e3c724b9df8f0c", "province": "\u6cb3\u5317\u7701", "uid": "34f1010c16e3c724b9df8f0c", "name": "\u90af\u90f8\u94f6\u884c-24\u5c0f\u65f6\u81ea\u52a9\u94f6\u884c", "area": "\u957f\u5b89\u533a", "location": {"lng": 114.518699, "lat": 38.044486}, "address": "\u77f3\u5bb6\u5e84\u5e02\u957f\u5b89\u533a\u5efa\u8bbe\u5357\u5927\u885729\u53f7\u9644\u8fd1", "detail": 1, "city": "\u77f3\u5bb6\u5e84\u5e02"}, {"street_id": "5fab7d084ccd323ec9c3db93", "province": "\u6cb3\u5317\u7701", "uid": "5fab7d084ccd323ec9c3db93", "name": "\u77f3\u5bb6\u5e84\u5e02\u5e02\u5bb9\u7ba1\u7406\u8003\u8bc4\u529e\u516c\u5ba4", "area": "\u957f\u5b89\u533a", "location": {"lng": 114.519542, "lat": 38.0446}, "address": "\u6cb3\u5317\u7701\u77f3\u5bb6\u5e84\u5e02\u957f\u5b89\u533a\u5efa\u8bbe\u5357\u5927\u885729\u53f7\u4f17\u946b\u5927\u53a611/12\u5c42", "detail": 1, "city": "\u77f3\u5bb6\u5e84\u5e02"}, {"street_id": "b7f4dc34bf42650af7c59c38", "province": "\u6cb3\u5317\u7701", "uid": "b7f4dc34bf42650af7c59c38", "name": "\u5eb7\u529b\u7535\u68af\u6cb3\u5317\u5206\u516c\u53f8", "area": "\u957f\u5b89\u533a", "location": {"lng": 114.518923, "lat": 38.044606}, "address": "\u6cb3\u5317\u7701\u77f3\u5bb6\u5e84\u5e02\u957f\u5b89\u533a\u5efa\u8bbe\u5357\u5927\u885729\u53f7\u4f17\u946b\u5927\u53a6818\u5ba4", "detail": 1, "city": "\u77f3\u5bb6\u5e84\u5e02"}, {"street_id": "5020ae384c37756ea1a93483", "province": "\u6cb3\u5317\u7701", "uid": "5020ae384c37756ea1a93483", "name": "\u77f3\u5bb6\u5e84\u81f4\u89c2\u5de5\u7a0b\u6280\u672f\u54a8\u8be2\u6709\u9650\u516c\u53f8", "area": "\u957f\u5b89\u533a", "location": {"lng": 114.519277, "lat": 38.044639}, "address": "\u5efa\u8bbe\u5357\u5927\u885729\u53f7\u4f17\u946b\u5927\u53a6", "detail": 1, "city": "\u77f3\u5bb6\u5e84\u5e02"}, {"street_id": "7e7a22f5e8a3c8dcede4a523", "province": "\u6cb3\u5317\u7701", "uid": "7e7a22f5e8a3c8dcede4a523", "name": "\u5c1a\u54c1\u9762\u5427", "area": "\u957f\u5b89\u533a", "location": {"lng": 114.519302, "lat": 38.04477}, "address": "\u77f3\u5bb6\u5e84\u5e02\u957f\u5b89\u533a\u5efa\u8bbe\u5357\u5927\u8857\u4f17\u946b\u5927\u53a61\u5c42", "telephone": "(0311)69004572", "detail": 1, "city": "\u77f3\u5bb6\u5e84\u5e02"}][][{"street_id": "6113ef77b27962148e77276e", "province": "\u6cb3\u5317\u7701", "uid": "6113ef77b27962148e77276e", "name": "\u6cb3\u5317\u4e2d\u533b\u5b66\u9662\u5bb6\u5c5e\u9662", "area": "\u6865\u897f\u533a", "location": {"lng": 114.462674, "lat": 38.015537}, "address": "\u65b0\u77f3\u5357\u8def229\u53f7", "detail": 1, "city": "\u77f3\u5bb6\u5e84\u5e02"}, {"street_id": "f18c561a4bdab76ec91b9598", "province": "\u6cb3\u5317\u7701", "uid": "f18c561a4bdab76ec91b9598", "name": "\u6cb3\u5317\u533b\u79d1\u5927\u5b66\u4e2d\u533b\u5b66\u9662\u5bbf\u820d-11\u53f7\u697c", "area": "\u6865\u897f\u533a", "location": {"lng": 114.462318, "lat": 38.016139}, "address": "\u77f3\u5bb6\u5e84\u5e02\u6865\u897f\u533a\u65b0\u77f3\u5357\u8def229\u53f7", "detail": 1, "city": "\u77f3\u5bb6\u5e84\u5e02"}, {"street_id": "73be331f6ae91341b34c49cd", "province": "\u6cb3\u5317\u7701", "uid": "73be331f6ae91341b34c49cd", "name": "\u7efc\u5408\u6c34\u4ea7\u5e97", "area": "\u6865\u897f\u533a", "location": {"lng": 114.463422, "lat": 38.015263}, "address": "\u65b0\u77f3\u5357\u8def229\u53f7\u9644\u8fd1", "detail": 1, "city": "\u77f3\u5bb6\u5e84\u5e02"}, {"street_id": "ed4c7f2dda24312421026287", "province": "\u6cb3\u5317\u7701", "uid": "ed4c7f2dda24312421026287", "name": "\u8c46\u8150\u574a", "area": "\u6865\u897f\u533a", "location": {"lng": 114.463316, "lat": 38.015033}, "address": "\u6cb3\u5317\u7701\u77f3\u5bb6\u5e84\u5e02\u6865\u897f\u533a\u65b0\u77f3\u5357\u8def229\u53f7", "detail": 1, "city": "\u77f3\u5bb6\u5e84\u5e02"}, {"street_id": "8f4c83db231cdeb3f942b29a", "province": "\u6cb3\u5317\u7701", "uid": "8f4c83db231cdeb3f942b29a", "name": "\u4f1a\u53cb\u5ddd\u5473\u9910\u5385", "area": "\u6865\u897f\u533a", "location": {"lng": 114.463156, "lat": 38.015212}, "address": "\u77f3\u5bb6\u5e84\u6865\u897f\u533a\u65b0\u77f3\u5357\u8def229\u53f7", "detail": 1, "city": "\u77f3\u5bb6\u5e84\u5e02"}, {"street_id": "adc73762627b284c6e20b9f0", "province": "\u6cb3\u5317\u7701", "uid": "adc73762627b284c6e20b9f0", "name": "\u6cb3\u5317\u4e2d\u533b\u5b66\u9662\u6a58\u6cc9\u6821\u533a-\u79bb\u9000\u4f11\u4eba\u5458\u6d3b\u52a8\u4e2d\u5fc3", "area": "\u6865\u897f\u533a", "location": {"lng": 114.463229, "lat": 38.015067}, "address": "\u6cb3\u5317\u7701\u77f3\u5bb6\u5e84\u5e02\u6865\u897f\u533a\u65b0\u77f3\u5357\u8def229\u53f7", "detail": 1, "city": "\u77f3\u5bb6\u5e84\u5e02"}, {"street_id": "2e76bee857a4c8b09122e052", "province": "\u6cb3\u5317\u7701", "uid": "2e76bee857a4c8b09122e052", "name": "\u65b0\u4e2d\u9c9c\u83dc\u5e97", "area": "\u6865\u897f\u533a", "location": {"lng": 114.463279, "lat": 38.015263}, "address": "\u6cb3\u5317\u7701\u77f3\u5bb6\u5e84\u5e02\u6865\u897f\u533a\u65b0\u77f3\u5357\u8def229\u53f7", "detail": 1, "city": "\u77f3\u5bb6\u5e84\u5e02"}, {"street_id": "687008c3d3325764213bf24b", "province": "\u6cb3\u5317\u7701", "uid": "687008c3d3325764213bf24b", "name": "\u91cd\u5e86\u9171\u83dc", "area": "\u6865\u897f\u533a", "location": {"lng": 114.463317, "lat": 38.014828}, "address": "\u6cb3\u5317\u7701\u77f3\u5bb6\u5e84\u5e02\u6865\u897f\u533a\u65b0\u77f3\u5357\u8def229\u53f7", "detail": 1, "city": "\u77f3\u5bb6\u5e84\u5e02"}]{"status": 302, "message": "\u5929\u914d\u989d\u8d85\u9650\uff0c\u9650\u5236\u8bbf\u95ee"}{"status": 302, "message": "\u5929\u914d\u989d\u8d85\u9650\uff0c\u9650\u5236\u8bbf\u95ee"}{"status": 302, "message": "\u5929\u914d\u989d\u8d85\u9650\uff0c\u9650\u5236\u8bbf\u95ee"}{"status": 302, "message": "\u5929\u914d\u989d\u8d85\u9650\uff0c\u9650\u5236\u8bbf\u95ee"}{"status": 302, "message": "\u5929\u914d\u989d\u8d85\u9650\uff0c\u9650\u5236\u8bbf\u95ee"}{"status": 302, "message": "\u5929\u914d\u989d\u8d85\u9650\uff0c\u9650\u5236\u8bbf\u95ee"}{"status": 302, "message": "\u5929\u914d\u989d\u8d85\u9650\uff0c\u9650\u5236\u8bbf\u95ee"}{"status": 302, "message": "\u5929\u914d\u989d\u8d85\u9650\uff0c\u9650\u5236\u8bbf\u95ee"}{"status": 302, "message": "\u5929\u914d\u989d\u8d85\u9650\uff0c\u9650\u5236\u8bbf\u95ee"}{"status": 302, "message": "\u5929\u914d\u989d\u8d85\u9650\uff0c\u9650\u5236\u8bbf\u95ee"}{"status": 302, "message": "\u5929\u914d\u989d\u8d85\u9650\uff0c\u9650\u5236\u8bbf\u95ee"}{"status": 302, "message": "\u5929\u914d\u989d\u8d85\u9650\uff0c\u9650\u5236\u8bbf\u95ee"}{"status": 302, "message": "\u5929\u914d\u989d\u8d85\u9650\uff0c\u9650\u5236\u8bbf\u95ee"}{"status": 302, "message": "\u5929\u914d\u989d\u8d85\u9650\uff0c\u9650\u5236\u8bbf\u95ee"}{"status": 302, "message": "\u5929\u914d\u989d\u8d85\u9650\uff0c\u9650\u5236\u8bbf\u95ee"}{"status": 302, "message": "\u5929\u914d\u989d\u8d85\u9650\uff0c\u9650\u5236\u8bbf\u95ee"}{"status": 302, "message": "\u5929\u914d\u989d\u8d85\u9650\uff0c\u9650\u5236\u8bbf\u95ee"}[{"province": "\u6cb3\u5317\u7701", "city": "\u77f3\u5bb6\u5e84\u5e02", "area": "\u957f\u5b89\u533a", "location": {"lng": 114.519169, "lat": 38.044606}, "street_id": "04a3e494290e986958f6be67", "detail": 1, "address": "\u6cb3\u5317\u7701\u77f3\u5bb6\u5e84\u5e02\u5efa\u8bbe\u5357\u5927\u885729\u53f7", "name": "\u4f17\u946b\u5927\u53a6", "uid": "04a3e494290e986958f6be67"}, {"province": "\u6cb3\u5317\u7701", "city": "\u77f3\u5bb6\u5e84\u5e02", "area": "\u957f\u5b89\u533a", "location": {"lng": 114.519364, "lat": 38.04488}, "street_id": "38809518c32a692bd3ff23fd", "detail": 1, "address": "\u6cb3\u5317\u7701\u77f3\u5bb6\u5e84\u5e02\u957f\u5b89\u533a\u5efa\u8bbe\u5357\u5927\u885729\u53f7", "name": "\u4f17\u946b\u5927\u53a6-\u505c\u8f66\u573a", "uid": "38809518c32a692bd3ff23fd"}, {"province": "\u6cb3\u5317\u7701", "city": "\u77f3\u5bb6\u5e84\u5e02", "area": "\u957f\u5b89\u533a", "location": {"lng": 114.519383, "lat": 38.044343}, "street_id": "49bc668e53fe3353a11de991", "detail": 1, "address": "\u6cb3\u5317\u7701\u77f3\u5bb6\u5e84\u5e02\u5efa\u8bbe\u5357\u5927\u885729\u53f7\u4f17\u946b\u5927\u53a616\u5c42", "name": "\u534e\u6cf0\u4fdd\u9669(\u6cb3\u5317\u7701\u5206\u516c\u53f8)", "uid": "49bc668e53fe3353a11de991"}, {"province": "\u6cb3\u5317\u7701", "city": "\u77f3\u5bb6\u5e84\u5e02", "area": "\u957f\u5b89\u533a", "location": {"lng": 114.518779, "lat": 38.045285}, "street_id": "3fd30f8c4bd72aec58f6be65", "detail": 1, "address": "\u5efa\u8bbe\u5357\u5927\u885729\u53f7\u4f17\u946b\u5927\u53a622\u5c42", "name": "\u77f3\u5bb6\u5e84\u52a0\u58f9\u5efa\u7b51\u8bbe\u8ba1\u516c\u53f8", "uid": "3fd30f8c4bd72aec58f6be65"}, {"province": "\u6cb3\u5317\u7701", "city": "\u77f3\u5bb6\u5e84\u5e02", "area": "\u957f\u5b89\u533a", "location": {"lng": 114.519376, "lat": 38.044888}, "street_id": "c63b13f1984c551808ccdd35", "detail": 1, "address": "\u5efa\u8bbe\u5357\u5927\u885729\u53f7", "name": "\u4f17\u946b\u5927\u53a6-\u5730\u4e0b\u505c\u8f66\u573a", "uid": "c63b13f1984c551808ccdd35"}, {"province": "\u6cb3\u5317\u7701", "city": "\u77f3\u5bb6\u5e84\u5e02", "area": "\u957f\u5b89\u533a", "location": {"lng": 114.518699, "lat": 38.044486}, "street_id": "34f1010c16e3c724b9df8f0c", "detail": 1, "address": "\u77f3\u5bb6\u5e84\u5e02\u957f\u5b89\u533a\u5efa\u8bbe\u5357\u5927\u885729\u53f7\u9644\u8fd1", "name": "\u90af\u90f8\u94f6\u884c-24\u5c0f\u65f6\u81ea\u52a9\u94f6\u884c", "uid": "34f1010c16e3c724b9df8f0c"}, {"province": "\u6cb3\u5317\u7701", "city": "\u77f3\u5bb6\u5e84\u5e02", "area": "\u957f\u5b89\u533a", "location": {"lng": 114.519542, "lat": 38.0446}, "street_id": "5fab7d084ccd323ec9c3db93", "detail": 1, "address": "\u6cb3\u5317\u7701\u77f3\u5bb6\u5e84\u5e02\u957f\u5b89\u533a\u5efa\u8bbe\u5357\u5927\u885729\u53f7\u4f17\u946b\u5927\u53a611/12\u5c42", "name": "\u77f3\u5bb6\u5e84\u5e02\u5e02\u5bb9\u7ba1\u7406\u8003\u8bc4\u529e\u516c\u5ba4", "uid": "5fab7d084ccd323ec9c3db93"}, {"province": "\u6cb3\u5317\u7701", "city": "\u77f3\u5bb6\u5e84\u5e02", "area": "\u957f\u5b89\u533a", "location": {"lng": 114.518923, "lat": 38.044606}, "street_id": "b7f4dc34bf42650af7c59c38", "detail": 1, "address": "\u6cb3\u5317\u7701\u77f3\u5bb6\u5e84\u5e02\u957f\u5b89\u533a\u5efa\u8bbe\u5357\u5927\u885729\u53f7\u4f17\u946b\u5927\u53a6818\u5ba4", "name": "\u5eb7\u529b\u7535\u68af\u6cb3\u5317\u5206\u516c\u53f8", "uid": "b7f4dc34bf42650af7c59c38"}, {"province": "\u6cb3\u5317\u7701", "city": "\u77f3\u5bb6\u5e84\u5e02", "area": "\u957f\u5b89\u533a", "location": {"lng": 114.519277, "lat": 38.044639}, "street_id": "5020ae384c37756ea1a93483", "detail": 1, "address": "\u5efa\u8bbe\u5357\u5927\u885729\u53f7\u4f17\u946b\u5927\u53a6", "name": "\u77f3\u5bb6\u5e84\u81f4\u89c2\u5de5\u7a0b\u6280\u672f\u54a8\u8be2\u6709\u9650\u516c\u53f8", "uid": "5020ae384c37756ea1a93483"}, {"province": "\u6cb3\u5317\u7701", "city": "\u77f3\u5bb6\u5e84\u5e02", "area": "\u957f\u5b89\u533a", "location": {"lng": 114.519302, "lat": 38.04477}, "telephone": "(0311)69004572", "street_id": "7e7a22f5e8a3c8dcede4a523", "detail": 1, "address": "\u77f3\u5bb6\u5e84\u5e02\u957f\u5b89\u533a\u5efa\u8bbe\u5357\u5927\u8857\u4f17\u946b\u5927\u53a61\u5c42", "name": "\u5c1a\u54c1\u9762\u5427", "uid": "7e7a22f5e8a3c8dcede4a523"}]