[{"area": "\u957f\u5b89\u533a", "province": "\u6cb3\u5317\u7701", "street_id": "04a3e494290e986958f6be67", "address": "\u6cb3\u5317\u7701\u77f3\u5bb6\u5e84\u5e02\u5efa\u8bbe\u5357\u5927\u885729\u53f7", "detail": 1, "name": "\u4f17\u946b\u5927\u53a6", "location": {"lng": 114.519169, "lat": 38.044606}, "city": "\u77f3\u5bb6\u5e84\u5e02", "uid": "04a3e494290e986958f6be67"}, {"area": "\u957f\u5b89\u533a", "province": "\u6cb3\u5317\u7701", "street_id": "38809518c32a692bd3ff23fd", "address": "\u6cb3\u5317\u7701\u77f3\u5bb6\u5e84\u5e02\u957f\u5b89\u533a\u5efa\u8bbe\u5357\u5927\u885729\u53f7", "detail": 1, "name": "\u4f17\u946b\u5927\u53a6-\u505c\u8f66\u573a", "location": {"lng": 114.519364, "lat": 38.04488}, "city": "\u77f3\u5bb6\u5e84\u5e02", "uid": "38809518c32a692bd3ff23fd"}, {"area": "\u957f\u5b89\u533a", "province": "\u6cb3\u5317\u7701", "street_id": "49bc668e53fe3353a11de991", "address": "\u6cb3\u5317\u7701\u77f3\u5bb6\u5e84\u5e02\u5efa\u8bbe\u5357\u5927\u885729\u53f7\u4f17\u946b\u5927\u53a616\u5c42", "detail": 1, "name": "\u534e\u6cf0\u4fdd\u9669(\u6cb3\u5317\u7701\u5206\u516c\u53f8)", "location": {"lng": 114.519383, "lat": 38.044343}, "city": "\u77f3\u5bb6\u5e84\u5e02", "uid": "49bc668e53fe3353a11de991"}, {"area": "\u957f\u5b89\u533a", "province": "\u6cb3\u5317\u7701", "street_id": "3fd30f8c4bd72aec58f6be65", "address": "\u5efa\u8bbe\u5357\u5927\u885729\u53f7\u4f17\u946b\u5927\u53a622\u5c42", "detail": 1, "name": "\u77f3\u5bb6\u5e84\u52a0\u58f9\u5efa\u7b51\u8bbe\u8ba1\u516c\u53f8", "location": {"lng": 114.518779, "lat": 38.045285}, "city": "\u77f3\u5bb6\u5e84\u5e02", "uid": "3fd30f8c4bd72aec58f6be65"}, {"area": "\u957f\u5b89\u533a", "province": "\u6cb3\u5317\u7701", "street_id": "c63b13f1984c551808ccdd35", "address": "\u5efa\u8bbe\u5357\u5927\u885729\u53f7", "detail": 1, "name": "\u4f17\u946b\u5927\u53a6-\u5730\u4e0b\u505c\u8f66\u573a", "location": {"lng": 114.519376, "lat": 38.044888}, "city": "\u77f3\u5bb6\u5e84\u5e02", "uid": "c63b13f1984c551808ccdd35"}, {"area": "\u957f\u5b89\u533a", "province": "\u6cb3\u5317\u7701", "street_id": "34f1010c16e3c724b9df8f0c", "address": "\u77f3\u5bb6\u5e84\u5e02\u957f\u5b89\u533a\u5efa\u8bbe\u5357\u5927\u885729\u53f7\u9644\u8fd1", "detail": 1, "name": "\u90af\u90f8\u94f6\u884c-24\u5c0f\u65f6\u81ea\u52a9\u94f6\u884c", "location": {"lng": 114.518699, "lat": 38.044486}, "city": "\u77f3\u5bb6\u5e84\u5e02", "uid": "34f1010c16e3c724b9df8f0c"}, {"area": "\u957f\u5b89\u533a", "province": "\u6cb3\u5317\u7701", "street_id": "5fab7d084ccd323ec9c3db93", "address": "\u6cb3\u5317\u7701\u77f3\u5bb6\u5e84\u5e02\u957f\u5b89\u533a\u5efa\u8bbe\u5357\u5927\u885729\u53f7\u4f17\u946b\u5927\u53a611/12\u5c42", "detail": 1, "name": "\u77f3\u5bb6\u5e84\u5e02\u5e02\u5bb9\u7ba1\u7406\u8003\u8bc4\u529e\u516c\u5ba4", "location": {"lng": 114.519542, "lat": 38.0446}, "city": "\u77f3\u5bb6\u5e84\u5e02", "uid": "5fab7d084ccd323ec9c3db93"}, {"area": "\u957f\u5b89\u533a", "province": "\u6cb3\u5317\u7701", "street_id": "b7f4dc34bf42650af7c59c38", "address": "\u6cb3\u5317\u7701\u77f3\u5bb6\u5e84\u5e02\u957f\u5b89\u533a\u5efa\u8bbe\u5357\u5927\u885729\u53f7\u4f17\u946b\u5927\u53a6818\u5ba4", "detail": 1, "name": "\u5eb7\u529b\u7535\u68af\u6cb3\u5317\u5206\u516c\u53f8", "location": {"lng": 114.518923, "lat": 38.044606}, "city": "\u77f3\u5bb6\u5e84\u5e02", "uid": "b7f4dc34bf42650af7c59c38"}, {"area": "\u957f\u5b89\u533a", "province": "\u6cb3\u5317\u7701", "street_id": "5020ae384c37756ea1a93483", "address": "\u5efa\u8bbe\u5357\u5927\u885729\u53f7\u4f17\u946b\u5927\u53a6", "detail": 1, "name": "\u77f3\u5bb6\u5e84\u81f4\u89c2\u5de5\u7a0b\u6280\u672f\u54a8\u8be2\u6709\u9650\u516c\u53f8", "location": {"lng": 114.519277, "lat": 38.044639}, "city": "\u77f3\u5bb6\u5e84\u5e02", "uid": "5020ae384c37756ea1a93483"}, {"area": "\u957f\u5b89\u533a", "province": "\u6cb3\u5317\u7701", "street_id": "7e7a22f5e8a3c8dcede4a523", "address": "\u77f3\u5bb6\u5e84\u5e02\u957f\u5b89\u533a\u5efa\u8bbe\u5357\u5927\u8857\u4f17\u946b\u5927\u53a61\u5c42", "detail": 1, "name": "\u5c1a\u54c1\u9762\u5427", "location": {"lng": 114.519302, "lat": 38.04477}, "uid": "7e7a22f5e8a3c8dcede4a523", "city": "\u77f3\u5bb6\u5e84\u5e02", "telephone": "(0311)69004572"}][{"area": "\u957f\u5b89\u533a", "name": "\u4f17\u946b\u5927\u53a6", "address": "\u6cb3\u5317\u7701\u77f3\u5bb6\u5e84\u5e02\u5efa\u8bbe\u5357\u5927\u885729\u53f7", "detail": 1, "city": "\u77f3\u5bb6\u5e84\u5e02", "location": {"lng": 114.519169, "lat": 38.044606}, "uid": "04a3e494290e986958f6be67", "street_id": "04a3e494290e986958f6be67", "province": "\u6cb3\u5317\u7701"}, {"area": "\u957f\u5b89\u533a", "name": "\u4f17\u946b\u5927\u53a6-\u505c\u8f66\u573a", "address": "\u6cb3\u5317\u7701\u77f3\u5bb6\u5e84\u5e02\u957f\u5b89\u533a\u5efa\u8bbe\u5357\u5927\u885729\u53f7", "detail": 1, "city": "\u77f3\u5bb6\u5e84\u5e02", "location": {"lng": 114.519364, "lat": 38.04488}, "uid": "38809518c32a692bd3ff23fd", "street_id": "38809518c32a692bd3ff23fd", "province": "\u6cb3\u5317\u7701"}, {"area": "\u957f\u5b89\u533a", "name": "\u534e\u6cf0\u4fdd\u9669(\u6cb3\u5317\u7701\u5206\u516c\u53f8)", "address": "\u6cb3\u5317\u7701\u77f3\u5bb6\u5e84\u5e02\u5efa\u8bbe\u5357\u5927\u885729\u53f7\u4f17\u946b\u5927\u53a616\u5c42", "detail": 1, "city": "\u77f3\u5bb6\u5e84\u5e02", "location": {"lng": 114.519383, "lat": 38.044343}, "uid": "49bc668e53fe3353a11de991", "street_id": "49bc668e53fe3353a11de991", "province": "\u6cb3\u5317\u7701"}, {"area": "\u957f\u5b89\u533a", "name": "\u77f3\u5bb6\u5e84\u52a0\u58f9\u5efa\u7b51\u8bbe\u8ba1\u516c\u53f8", "address": "\u5efa\u8bbe\u5357\u5927\u885729\u53f7\u4f17\u946b\u5927\u53a622\u5c42", "detail": 1, "city": "\u77f3\u5bb6\u5e84\u5e02", "location": {"lng": 114.518779, "lat": 38.045285}, "uid": "3fd30f8c4bd72aec58f6be65", "street_id": "3fd30f8c4bd72aec58f6be65", "province": "\u6cb3\u5317\u7701"}, {"area": "\u957f\u5b89\u533a", "name": "\u4f17\u946b\u5927\u53a6-\u5730\u4e0b\u505c\u8f66\u573a", "address": "\u5efa\u8bbe\u5357\u5927\u885729\u53f7", "detail": 1, "city": "\u77f3\u5bb6\u5e84\u5e02", "location": {"lng": 114.519376, "lat": 38.044888}, "uid": "c63b13f1984c551808ccdd35", "street_id": "c63b13f1984c551808ccdd35", "province": "\u6cb3\u5317\u7701"}, {"area": "\u957f\u5b89\u533a", "name": "\u90af\u90f8\u94f6\u884c-24\u5c0f\u65f6\u81ea\u52a9\u94f6\u884c", "address": "\u77f3\u5bb6\u5e84\u5e02\u957f\u5b89\u533a\u5efa\u8bbe\u5357\u5927\u885729\u53f7\u9644\u8fd1", "detail": 1, "city": "\u77f3\u5bb6\u5e84\u5e02", "location": {"lng": 114.518699, "lat": 38.044486}, "uid": "34f1010c16e3c724b9df8f0c", "street_id": "34f1010c16e3c724b9df8f0c", "province": "\u6cb3\u5317\u7701"}, {"area": "\u957f\u5b89\u533a", "name": "\u77f3\u5bb6\u5e84\u5e02\u5e02\u5bb9\u7ba1\u7406\u8003\u8bc4\u529e\u516c\u5ba4", "address": "\u6cb3\u5317\u7701\u77f3\u5bb6\u5e84\u5e02\u957f\u5b89\u533a\u5efa\u8bbe\u5357\u5927\u885729\u53f7\u4f17\u946b\u5927\u53a611/12\u5c42", "detail": 1, "city": "\u77f3\u5bb6\u5e84\u5e02", "location": {"lng": 114.519542, "lat": 38.0446}, "uid": "5fab7d084ccd323ec9c3db93", "street_id": "5fab7d084ccd323ec9c3db93", "province": "\u6cb3\u5317\u7701"}, {"area": "\u957f\u5b89\u533a", "name": "\u5eb7\u529b\u7535\u68af\u6cb3\u5317\u5206\u516c\u53f8", "address": "\u6cb3\u5317\u7701\u77f3\u5bb6\u5e84\u5e02\u957f\u5b89\u533a\u5efa\u8bbe\u5357\u5927\u885729\u53f7\u4f17\u946b\u5927\u53a6818\u5ba4", "detail": 1, "city": "\u77f3\u5bb6\u5e84\u5e02", "location": {"lng": 114.518923, "lat": 38.044606}, "uid": "b7f4dc34bf42650af7c59c38", "street_id": "b7f4dc34bf42650af7c59c38", "province": "\u6cb3\u5317\u7701"}, {"area": "\u957f\u5b89\u533a", "name": "\u77f3\u5bb6\u5e84\u81f4\u89c2\u5de5\u7a0b\u6280\u672f\u54a8\u8be2\u6709\u9650\u516c\u53f8", "address": "\u5efa\u8bbe\u5357\u5927\u885729\u53f7\u4f17\u946b\u5927\u53a6", "detail": 1, "city": "\u77f3\u5bb6\u5e84\u5e02", "location": {"lng": 114.519277, "lat": 38.044639}, "uid": "5020ae384c37756ea1a93483", "street_id": "5020ae384c37756ea1a93483", "province": "\u6cb3\u5317\u7701"}, {"area": "\u957f\u5b89\u533a", "name": "\u5c1a\u54c1\u9762\u5427", "address": "\u77f3\u5bb6\u5e84\u5e02\u957f\u5b89\u533a\u5efa\u8bbe\u5357\u5927\u8857\u4f17\u946b\u5927\u53a61\u5c42", "telephone": "(0311)69004572", "detail": 1, "city": "\u77f3\u5bb6\u5e84\u5e02", "location": {"lng": 114.519302, "lat": 38.04477}, "uid": "7e7a22f5e8a3c8dcede4a523", "street_id": "7e7a22f5e8a3c8dcede4a523", "province": "\u6cb3\u5317\u7701"}]